[
 {
   "State": "Bihar",
   "BranchName": "Dalsinghsarai",
   "Latitude": 25.671433,
   "Longitude": 85.833951
 },
 {
   "State": "Bihar",
   "BranchName": "Ghatnawada",
   "Latitude": 25.603637,
   "Longitude": 85.726709
 },
 {
   "State": "Bihar",
   "BranchName": "Patori",
   "Latitude": 25.62896,
   "Longitude": 85.600508
 },
 {
   "State": "Bihar",
   "BranchName": "MohiuddiNagar",
   "Latitude": 25.5695,
   "Longitude": 85.664052
 },
 {
   "State": "Bihar",
   "BranchName": "Vidyapati Nagar",
   "Latitude": 25.58933,
   "Longitude": 85.794695
 },
 {
   "State": "Bihar",
   "BranchName": "Lakhisarai",
   "Latitude": 25.179104,
   "Longitude": 86.10784
 },
 {
   "State": "Bihar",
   "BranchName": "Barauni",
   "Latitude": 25.470176,
   "Longitude": 85.977629
 },
 {
   "State": "Bihar",
   "BranchName": "Barauni - B",
   "Latitude": 25.592933,
   "Longitude": 85.865048
 },
 {
   "State": "Bihar",
   "BranchName": "Barauni - C",
   "Latitude": 25.470728,
   "Longitude": 85.989975
 },
 {
   "State": "Bihar",
   "BranchName": "Bihat",
   "Latitude": 25.430524,
   "Longitude": 86.02523
 },
 {
   "State": "Bihar",
   "BranchName": "Bachwara-B",
   "Latitude": 25.513414,
   "Longitude": 85.924114
 },
 {
   "State": "Bihar",
   "BranchName": "Begusarai",
   "Latitude": 25.41872,
   "Longitude": 86.14407
 },
 {
   "State": "Bihar",
   "BranchName": "Ballia",
   "Latitude": 25.399223,
   "Longitude": 86.293359
 },
 {
   "State": "Bihar",
   "BranchName": "Bakhri",
   "Latitude": 25.596475,
   "Longitude": 86.253755
 },
 {
   "State": "Bihar",
   "BranchName": "Begusarai - C",
   "Latitude": 25.416361,
   "Longitude": 86.158022
 },
 {
   "State": "Bihar",
   "BranchName": "Bakhri-C",
   "Latitude": 25.61046,
   "Longitude": 86.27271
 },
 {
   "State": "Bihar",
   "BranchName": "Begusarai-G",
   "Latitude": 25.411065,
   "Longitude": 86.161136
 },
 {
   "State": "Bihar",
   "BranchName": "Panchveer",
   "Latitude": 25.406106,
   "Longitude": 86.379243
 },
 {
   "State": "Bihar",
   "BranchName": "Khagaria",
   "Latitude": 25.521778,
   "Longitude": 86.514218
 },
 {
   "State": "Bihar",
   "BranchName": "Mansi",
   "Latitude": 25.514664,
   "Longitude": 86.553282
 },
 {
   "State": "Bihar",
   "BranchName": "Alauli",
   "Latitude": 25.64287,
   "Longitude": 86.4048
 },
 {
   "State": "Bihar",
   "BranchName": "Pipra",
   "Latitude": 26.156083,
   "Longitude": 86.798232
 },
 {
   "State": "Bihar",
   "BranchName": "Supaul-B",
   "Latitude": 26.220771,
   "Longitude": 86.677002
 },
 {
   "State": "Bihar",
   "BranchName": "Simrahi",
   "Latitude": 26.311586,
   "Longitude": 86.84801
 },
 {
   "State": "Bihar",
   "BranchName": "Maheshkut",
   "Latitude": 25.437855,
   "Longitude": 86.681359
 },
 {
   "State": "Bihar",
   "BranchName": "Gogri",
   "Latitude": 25.409826,
   "Longitude": 86.656234
 },
 {
   "State": "Bihar",
   "BranchName": "Parbatta",
   "Latitude": 25.309405,
   "Longitude": 86.714006
 },
 {
   "State": "Bihar",
   "BranchName": "Beldour",
   "Latitude": 25.594436,
   "Longitude": 86.785513
 },
 {
   "State": "Bihar",
   "BranchName": "Saharsa",
   "Latitude": 25.873199,
   "Longitude": 86.591028
 },
 {
   "State": "Bihar",
   "BranchName": "Simri - Bakhtiyarpur",
   "Latitude": 25.718206,
   "Longitude": 86.596723
 },
 {
   "State": "Bihar",
   "BranchName": "Saharsa D",
   "Latitude": 25.87451,
   "Longitude": 86.598241
 },
 {
   "State": "Bihar",
   "BranchName": "Sonbarsa",
   "Latitude": 25.700302,
   "Longitude": 86.709137
 },
 {
   "State": "Bihar",
   "BranchName": "Samastipur",
   "Latitude": 25.869679,
   "Longitude": 85.7856
 },
 {
   "State": "Bihar",
   "BranchName": "Pusa",
   "Latitude": 26.030327,
   "Longitude": 85.660492
 },
 {
   "State": "Bihar",
   "BranchName": "Rosara",
   "Latitude": 25.748964,
   "Longitude": 86.032696
 },
 {
   "State": "Bihar",
   "BranchName": "Tajpur",
   "Latitude": 25.854716,
   "Longitude": 85.665414
 },
 {
   "State": "Bihar",
   "BranchName": "Samastipur - B",
   "Latitude": 25.85356,
   "Longitude": 85.777243
 },
 {
   "State": "Bihar",
   "BranchName": "Rosera-B",
   "Latitude": 25.753768,
   "Longitude": 86.03141
 },
 {
   "State": "Bihar",
   "BranchName": "Pusa-B",
   "Latitude": 25.956868,
   "Longitude": 85.779581
 },
 {
   "State": "Bihar",
   "BranchName": "Tajpur-B",
   "Latitude": 25.853043,
   "Longitude": 85.673074
 },
 {
   "State": "Bihar",
   "BranchName": "Samastipur-D",
   "Latitude": 25.868352,
   "Longitude": 85.92676
 },
 {
   "State": "Bihar",
   "BranchName": "Rosara - C",
   "Latitude": 25.748591,
   "Longitude": 86.032171
 },
 {
   "State": "Bihar",
   "BranchName": "Begusarai - B",
   "Latitude": 25.434153,
   "Longitude": 86.131108
 },
 {
   "State": "Bihar",
   "BranchName": "Bakhri - B",
   "Latitude": 25.578849,
   "Longitude": 86.094699
 },
 {
   "State": "Bihar",
   "BranchName": "Mansur Chak",
   "Latitude": 25.623752,
   "Longitude": 85.919303
 },
 {
   "State": "Bihar",
   "BranchName": "Garhpura-B",
   "Latitude": 25.659733,
   "Longitude": 86.188021
 },
 {
   "State": "Bihar",
   "BranchName": "Begusarai-F",
   "Latitude": 25.423038,
   "Longitude": 86.126835
 },
 {
   "State": "Bihar",
   "BranchName": "Bakhri-D",
   "Latitude": 25.584693,
   "Longitude": 86.090767
 },
 {
   "State": "Bihar",
   "BranchName": "Garhpura-C",
   "Latitude": 25.662131,
   "Longitude": 86.181702
 },
 {
   "State": "Bihar",
   "BranchName": "Bhagwanpur-B",
   "Latitude": 25.542619,
   "Longitude": 86.008745
 },
 {
   "State": "Bihar",
   "BranchName": "Sarvoday Nagar",
   "Latitude": 25.408843,
   "Longitude": 86.13917
 },
 {
   "State": "Bihar",
   "BranchName": "Bandwar",
   "Latitude": 25.50992,
   "Longitude": 86.164918
 },
 {
   "State": "Bihar",
   "BranchName": "Baisi",
   "Latitude": 25.86158,
   "Longitude": 87.745913
 },
 {
   "State": "Bihar",
   "BranchName": "Araria",
   "Latitude": 26.14274,
   "Longitude": 87.460571
 },
 {
   "State": "Bihar",
   "BranchName": "Farbisganj",
   "Latitude": 26.26151,
   "Longitude": 87.273431
 },
 {
   "State": "Bihar",
   "BranchName": "Raniganj-B",
   "Latitude": 26.079862,
   "Longitude": 87.238346
 },
 {
   "State": "Bihar",
   "BranchName": "Forbesganj-B",
   "Latitude": 26.298322,
   "Longitude": 87.270012
 },
 {
   "State": "Bihar",
   "BranchName": "Araria-C",
   "Latitude": 26.138288,
   "Longitude": 87.451599
 },
 {
   "State": "Bihar",
   "BranchName": "Raniganj-C",
   "Latitude": 26.079907,
   "Longitude": 87.238613
 },
 {
   "State": "Bihar",
   "BranchName": "Narpatganj",
   "Latitude": 26.335867,
   "Longitude": 87.110091
 },
 {
   "State": "Bihar",
   "BranchName": "Kishanganj",
   "Latitude": 26.098364,
   "Longitude": 87.955339
 },
 {
   "State": "Bihar",
   "BranchName": "Kishanganj - C",
   "Latitude": 26.098805,
   "Longitude": 87.961202
 },
 {
   "State": "Bihar",
   "BranchName": "Masak Chak",
   "Latitude": 25.242173,
   "Longitude": 86.980846
 },
 {
   "State": "Bihar",
   "BranchName": "Khahalgaon",
   "Latitude": 25.265691,
   "Longitude": 87.234185
 },
 {
   "State": "Bihar",
   "BranchName": "Sabour",
   "Latitude": 25.24181,
   "Longitude": 87.04151
 },
 {
   "State": "Bihar",
   "BranchName": "Naugachia",
   "Latitude": 25.384468,
   "Longitude": 87.094147
 },
 {
   "State": "Bihar",
   "BranchName": "Amarpur",
   "Latitude": 25.037922,
   "Longitude": 86.904434
 },
 {
   "State": "Bihar",
   "BranchName": "Banka",
   "Latitude": 24.885295,
   "Longitude": 86.925962
 },
 {
   "State": "Bihar",
   "BranchName": "Katoria",
   "Latitude": 24.735232,
   "Longitude": 86.713101
 },
 {
   "State": "Bihar",
   "BranchName": "Korha",
   "Latitude": 25.623064,
   "Longitude": 87.366723
 },
 {
   "State": "Bihar",
   "BranchName": "Korha-B",
   "Latitude": 25.621049,
   "Longitude": 87.403084
 },
 {
   "State": "Bihar",
   "BranchName": "Rajoun",
   "Latitude": 25.005889,
   "Longitude": 86.990208
 },
 {
   "State": "Bihar",
   "BranchName": "Dhouriya",
   "Latitude": 24.976803,
   "Longitude": 87.131121
 },
 {
   "State": "Bihar",
   "BranchName": "Nathnagar",
   "Latitude": 25.240781,
   "Longitude": 86.939096
 },
 {
   "State": "Bihar",
   "BranchName": "Sultanganj",
   "Latitude": 25.244745,
   "Longitude": 86.740963
 },
 {
   "State": "Bihar",
   "BranchName": "Narayanpur",
   "Latitude": 25.414782,
   "Longitude": 86.863184
 },
 {
   "State": "Bihar",
   "BranchName": "Jamalpur",
   "Latitude": 25.318871,
   "Longitude": 86.493211
 },
 {
   "State": "Bihar",
   "BranchName": "Sangrampur",
   "Latitude": 25.087718,
   "Longitude": 86.661644
 },
 {
   "State": "Bihar",
   "BranchName": "Jamalpur - B",
   "Latitude": 25.3186,
   "Longitude": 86.492866
 },
 {
   "State": "Bihar",
   "BranchName": "Jamalpur - C",
   "Latitude": 25.376793,
   "Longitude": 86.480114
 },
 {
   "State": "Bihar",
   "BranchName": "Jamui",
   "Latitude": 24.93444,
   "Longitude": 86.229755
 },
 {
   "State": "Bihar",
   "BranchName": "Jhajha",
   "Latitude": 24.770121,
   "Longitude": 86.376278
 },
 {
   "State": "Bihar",
   "BranchName": "Jamui-B",
   "Latitude": 24.932126,
   "Longitude": 86.229381
 },
 {
   "State": "Bihar",
   "BranchName": "Purnia",
   "Latitude": 25.782252,
   "Longitude": 87.462552
 },
 {
   "State": "Bihar",
   "BranchName": "Banmankhi",
   "Latitude": 25.886886,
   "Longitude": 87.19116
 },
 {
   "State": "Bihar",
   "BranchName": "Madhepura",
   "Latitude": 25.912955,
   "Longitude": 86.792244
 },
 {
   "State": "Bihar",
   "BranchName": "Singheshwar",
   "Latitude": 25.981704,
   "Longitude": 86.845878
 },
 {
   "State": "Bihar",
   "BranchName": "Madhepura-B",
   "Latitude": 25.925275,
   "Longitude": 86.797176
 },
 {
   "State": "Bihar",
   "BranchName": "Chausa",
   "Latitude": 25.535438,
   "Longitude": 87.031848
 },
 {
   "State": "Bihar",
   "BranchName": "Bihariganj",
   "Latitude": 25.730979,
   "Longitude": 86.987859
 },
 {
   "State": "Bihar",
   "BranchName": "Alamnagar",
   "Latitude": 25.568326,
   "Longitude": 86.901813
 },
 {
   "State": "Bihar",
   "BranchName": "Murliganj - B",
   "Latitude": 25.889433,
   "Longitude": 86.991952
 },
 {
   "State": "Bihar",
   "BranchName": "Katihar",
   "Latitude": 25.544713,
   "Longitude": 87.559922
 },
 {
   "State": "Bihar",
   "BranchName": "Manihari",
   "Latitude": 25.529855,
   "Longitude": 87.563976
 },
 {
   "State": "Bihar",
   "BranchName": "Barsoi",
   "Latitude": 25.61891,
   "Longitude": 87.925721
 },
 {
   "State": "Bihar",
   "BranchName": "Katihar-C",
   "Latitude": 25.531551,
   "Longitude": 87.587652
 },
 {
   "State": "Bihar",
   "BranchName": "Manihari-B",
   "Latitude": 25.342299,
   "Longitude": 87.624502
 },
 {
   "State": "Bihar",
   "BranchName": "Purnia - B",
   "Latitude": 25.764261,
   "Longitude": 87.520935
 },
 {
   "State": "Bihar",
   "BranchName": "Purnia - E",
   "Latitude": 25.766668,
   "Longitude": 87.472256
 },
 {
   "State": "Bihar",
   "BranchName": "Purnia-F",
   "Latitude": 25.862449,
   "Longitude": 87.537525
 },
 {
   "State": "Bihar",
   "BranchName": "Purnia-G",
   "Latitude": 25.782355,
   "Longitude": 87.462539
 },
 {
   "State": "Bihar",
   "BranchName": "Purnia-H",
   "Latitude": 25.780783,
   "Longitude": 87.515033
 },
 {
   "State": "Uttar Pradesh",
   "BranchName": "Deoria",
   "Latitude": 26.511067,
   "Longitude": 83.767135
 },
 {
   "State": "Uttar Pradesh",
   "BranchName": "Salempur",
   "Latitude": 26.303911,
   "Longitude": 83.914406
 },
 {
   "State": "Uttar Pradesh",
   "BranchName": "Barhaj",
   "Latitude": 26.279451,
   "Longitude": 83.718072
 },
 {
   "State": "Uttar Pradesh",
   "BranchName": "Deoria - B",
   "Latitude": 26.503133,
   "Longitude": 83.79581
 },
 {
   "State": "Uttar Pradesh",
   "BranchName": "Bhatpar Rani",
   "Latitude": 26.316657,
   "Longitude": 84.031796
 },
 {
   "State": "Uttar Pradesh",
   "BranchName": "Pathardeva",
   "Latitude": 26.567649,
   "Longitude": 83.925377
 },
 {
   "State": "Uttar Pradesh",
   "BranchName": "Bhatni-B",
   "Latitude": 26.374422,
   "Longitude": 83.933323
 },
 {
   "State": "Uttar Pradesh",
   "BranchName": "Barhalganj",
   "Latitude": 26.287809,
   "Longitude": 83.516103
 },
 {
   "State": "Uttar Pradesh",
   "BranchName": "Kaudiram",
   "Latitude": 26.530513,
   "Longitude": 83.410935
 },
 {
   "State": "Uttar Pradesh",
   "BranchName": "Gola Bazar",
   "Latitude": 26.339768,
   "Longitude": 83.366486
 },
 {
   "State": "Uttar Pradesh",
   "BranchName": "Jiyanpur",
   "Latitude": 26.149151,
   "Longitude": 83.322477
 },
 {
   "State": "Uttar Pradesh",
   "BranchName": "Budhanpurwa",
   "Latitude": 26.276004,
   "Longitude": 83.007343
 },
 {
   "State": "Uttar Pradesh",
   "BranchName": "Ghosi",
   "Latitude": 26.101857,
   "Longitude": 83.541726
 },
 {
   "State": "Uttar Pradesh",
   "BranchName": "Gauri Bazar",
   "Latitude": 26.593653,
   "Longitude": 83.667912
 },
 {
   "State": "Uttar Pradesh",
   "BranchName": "Suraj Kund (Gorakhpur)",
   "Latitude": 26.775952,
   "Longitude": 83.397391
 },
 {
   "State": "Uttar Pradesh",
   "BranchName": "Sahjanwa",
   "Latitude": 26.754162,
   "Longitude": 83.209667
 },
 {
   "State": "Uttar Pradesh",
   "BranchName": "Kuraghat",
   "Latitude": 26.734465,
   "Longitude": 83.419915
 },
 {
   "State": "Uttar Pradesh",
   "BranchName": "Bhathat",
   "Latitude": 26.965266,
   "Longitude": 83.543214
 },
 {
   "State": "Uttar Pradesh",
   "BranchName": "Uruwa Bazar",
   "Latitude": 26.449422,
   "Longitude": 83.261247
 },
 {
   "State": "Uttar Pradesh",
   "BranchName": "Peepiganj",
   "Latitude": 26.925086,
   "Longitude": 83.298127
 },
 {
   "State": "Uttar Pradesh",
   "BranchName": "Chauri-Chaura",
   "Latitude": 26.646688,
   "Longitude": 83.57832
 },
 {
   "State": "Uttar Pradesh",
   "BranchName": "Bargadwa",
   "Latitude": 26.786116,
   "Longitude": 83.353965
 },
 {
   "State": "Uttar Pradesh",
   "BranchName": "Khajani",
   "Latitude": 26.652765,
   "Longitude": 83.244635
 },
 {
   "State": "Uttar Pradesh",
   "BranchName": "Paniyra",
   "Latitude": 26.98679,
   "Longitude": 83.531439
 },
 {
   "State": "Uttar Pradesh",
   "BranchName": "Mehdawal",
   "Latitude": 26.996717,
   "Longitude": 83.050548
 },
 {
   "State": "Uttar Pradesh",
   "BranchName": "Jagdishpur",
   "Latitude": 26.743526,
   "Longitude": 83.542522
 },
 {
   "State": "Uttar Pradesh",
   "BranchName": "Kasia",
   "Latitude": 26.761179,
   "Longitude": 83.908881
 },
 {
   "State": "Uttar Pradesh",
   "BranchName": "Hata",
   "Latitude": 26.742761,
   "Longitude": 83.743288
 },
 {
   "State": "Uttar Pradesh",
   "BranchName": "Padrauna",
   "Latitude": 26.887411,
   "Longitude": 83.97124
 },
 {
   "State": "Uttar Pradesh",
   "BranchName": "Tamkuhiraj",
   "Latitude": 26.694198,
   "Longitude": 84.185505
 },
 {
   "State": "Uttar Pradesh",
   "BranchName": "Ramkola",
   "Latitude": 26.906663,
   "Longitude": 83.830991
 },
 {
   "State": "Uttar Pradesh",
   "BranchName": "Fazil Nagar",
   "Latitude": 26.682732,
   "Longitude": 84.049078
 },
 {
   "State": "Uttar Pradesh",
   "BranchName": "Dudahi",
   "Latitude": 26.799507,
   "Longitude": 84.143713
 },
 {
   "State": "Uttar Pradesh",
   "BranchName": "Salemgarh",
   "Latitude": 26.623926,
   "Longitude": 84.257379
 },
 {
   "State": "Uttar Pradesh",
   "BranchName": "Pipraich",
   "Latitude": 26.826666,
   "Longitude": 83.530065
 },
 {
   "State": "Uttar Pradesh",
   "BranchName": "Khadda",
   "Latitude": 27.15122,
   "Longitude": 83.757882
 },
 {
   "State": "Uttar Pradesh",
   "BranchName": "Maharajganj",
   "Latitude": 27.260695,
   "Longitude": 83.635731
 },
 {
   "State": "Uttar Pradesh",
   "BranchName": "KolhuiBazar",
   "Latitude": 27.294771,
   "Longitude": 83.326958
 },
 {
   "State": "Uttar Pradesh",
   "BranchName": "SiswaBazar",
   "Latitude": 27.150769,
   "Longitude": 83.758159
 },
 {
   "State": "Uttar Pradesh",
   "BranchName": "Pharenda",
   "Latitude": 27.104037,
   "Longitude": 83.28306
 },
 {
   "State": "Bihar",
   "BranchName": "Hajipur-D",
   "Latitude": 25.686494,
   "Longitude": 85.207938
 },
 {
   "State": "Bihar",
   "BranchName": "Chhapara",
   "Latitude": 25.783547,
   "Longitude": 84.724233
 },
 {
   "State": "Bihar",
   "BranchName": "Dighwara",
   "Latitude": 25.742396,
   "Longitude": 85.004431
 },
 {
   "State": "Bihar",
   "BranchName": "Chapra - B",
   "Latitude": 25.791771,
   "Longitude": 84.755452
 },
 {
   "State": "Bihar",
   "BranchName": "Jalalpur",
   "Latitude": 25.900788,
   "Longitude": 84.697152
 },
 {
   "State": "Bihar",
   "BranchName": "Marhurah",
   "Latitude": 25.974462,
   "Longitude": 84.869885
 },
 {
   "State": "Bihar",
   "BranchName": "Parsa",
   "Latitude": 25.879626,
   "Longitude": 85.030753
 },
 {
   "State": "Bihar",
   "BranchName": "Ekma-B",
   "Latitude": 25.964247,
   "Longitude": 84.536169
 },
 {
   "State": "Bihar",
   "BranchName": "Garkha-B",
   "Latitude": 25.830394,
   "Longitude": 84.865897
 },
 {
   "State": "Bihar",
   "BranchName": "Taraiya",
   "Latitude": 26.065051,
   "Longitude": 84.883214
 },
 {
   "State": "Bihar",
   "BranchName": "Hajipur",
   "Latitude": 25.685545,
   "Longitude": 85.214003
 },
 {
   "State": "Bihar",
   "BranchName": "Lalganj",
   "Latitude": 25.86424,
   "Longitude": 85.178993
 },
 {
   "State": "Bihar",
   "BranchName": "Hajipur - B",
   "Latitude": 25.686537,
   "Longitude": 85.207925
 },
 {
   "State": "Bihar",
   "BranchName": "Goraul",
   "Latitude": 25.92922,
   "Longitude": 85.32324
 },
 {
   "State": "Bihar",
   "BranchName": "Hajipur - C",
   "Latitude": 25.779373,
   "Longitude": 85.273323
 },
 {
   "State": "Bihar",
   "BranchName": "Bhagwanpur",
   "Latitude": 25.857483,
   "Longitude": 85.294215
 },
 {
   "State": "Bihar",
   "BranchName": "PaswanChowk",
   "Latitude": 25.692544,
   "Longitude": 85.224299
 },
 {
   "State": "Bihar",
   "BranchName": "Lalganj - B",
   "Latitude": 25.865046,
   "Longitude": 85.178744
 },
 {
   "State": "Bihar",
   "BranchName": "Goraul-B",
   "Latitude": 25.931113,
   "Longitude": 85.320225
 },
 {
   "State": "Bihar",
   "BranchName": "Saraiya",
   "Latitude": 25.990549,
   "Longitude": 85.130919
 },
 {
   "State": "Bihar",
   "BranchName": "Mahua",
   "Latitude": 25.806881,
   "Longitude": 85.392707
 },
 {
   "State": "Bihar",
   "BranchName": "Jandaha",
   "Latitude": 25.710141,
   "Longitude": 85.540867
 },
 {
   "State": "Bihar",
   "BranchName": "Mahnar",
   "Latitude": 25.603437,
   "Longitude": 85.487296
 },
 {
   "State": "Bihar",
   "BranchName": "Bidupur",
   "Latitude": 25.651861,
   "Longitude": 85.321443
 },
 {
   "State": "Bihar",
   "BranchName": "Mahua-B",
   "Latitude": 25.81325,
   "Longitude": 85.394384
 },
 {
   "State": "Bihar",
   "BranchName": "Jandaha-B",
   "Latitude": 25.710454,
   "Longitude": 85.535403
 },
 {
   "State": "Bihar",
   "BranchName": "Paru",
   "Latitude": 25.990549,
   "Longitude": 85.130919
 },
 {
   "State": "Bihar",
   "BranchName": "Desari",
   "Latitude": 25.671009,
   "Longitude": 85.404441
 },
 {
   "State": "Bihar",
   "BranchName": "Dholi",
   "Latitude": 25.977714,
   "Longitude": 85.563982
 },
 {
   "State": "Bihar",
   "BranchName": "Sakra",
   "Latitude": 25.977884,
   "Longitude": 85.563754
 },
 {
   "State": "Bihar",
   "BranchName": "Motipur",
   "Latitude": 26.309031,
   "Longitude": 85.204604
 },
 {
   "State": "Bihar",
   "BranchName": "Muzaffarpur - B",
   "Latitude": 26.137583,
   "Longitude": 85.361783
 },
 {
   "State": "Bihar",
   "BranchName": "Sahebganj",
   "Latitude": 26.299937,
   "Longitude": 84.92671
 },
 {
   "State": "Bihar",
   "BranchName": "Muzaffarpur - C",
   "Latitude": 26.254913,
   "Longitude": 85.33419
 },
 {
   "State": "Bihar",
   "BranchName": "Muzaffarpur - D",
   "Latitude": 26.107412,
   "Longitude": 85.410249
 },
 {
   "State": "Bihar",
   "BranchName": "Kachi Paki",
   "Latitude": 26.08984,
   "Longitude": 85.395546
 },
 {
   "State": "Bihar",
   "BranchName": "Ahiyapur",
   "Latitude": 26.153495,
   "Longitude": 85.399372
 },
 {
   "State": "Bihar",
   "BranchName": "Motipur-C",
   "Latitude": 26.25368,
   "Longitude": 85.174575
 },
 {
   "State": "Bihar",
   "BranchName": "Minapur",
   "Latitude": 26.219123,
   "Longitude": 85.385875
 },
 {
   "State": "Bihar",
   "BranchName": "Sahebganj-B",
   "Latitude": 26.299041,
   "Longitude": 84.933898
 },
 {
   "State": "Bihar",
   "BranchName": "Masarakh-B",
   "Latitude": 26.109662,
   "Longitude": 84.803955
 },
 {
   "State": "Bihar",
   "BranchName": "Siwan",
   "Latitude": 26.221082,
   "Longitude": 84.369412
 },
 {
   "State": "Bihar",
   "BranchName": "Baraharia",
   "Latitude": 26.309961,
   "Longitude": 84.460556
 },
 {
   "State": "Bihar",
   "BranchName": "Maharajganj",
   "Latitude": 26.104731,
   "Longitude": 84.506514
 },
 {
   "State": "Bihar",
   "BranchName": "Mairwan",
   "Latitude": 26.233698,
   "Longitude": 84.155056
 },
 {
   "State": "Bihar",
   "BranchName": "Gopalganj",
   "Latitude": 26.47127,
   "Longitude": 84.446989
 },
 {
   "State": "Bihar",
   "BranchName": "Baikunthpur",
   "Latitude": 26.315254,
   "Longitude": 84.67527
 },
 {
   "State": "Bihar",
   "BranchName": "Barauli",
   "Latitude": 26.38175,
   "Longitude": 84.583636
 },
 {
   "State": "Bihar",
   "BranchName": "Kuchaikote",
   "Latitude": 26.55735,
   "Longitude": 84.328808
 },
 {
   "State": "Bihar",
   "BranchName": "Bhorey",
   "Latitude": 26.449272,
   "Longitude": 84.107014
 },
 {
   "State": "Bihar",
   "BranchName": "Mirganj - B",
   "Latitude": 26.355648,
   "Longitude": 84.337386
 },
 {
   "State": "Uttar Pradesh",
   "BranchName": "Faizabad",
   "Latitude": 26.765362,
   "Longitude": 82.122084
 },
 {
   "State": "Uttar Pradesh",
   "BranchName": "Gosaiganj",
   "Latitude": 26.569448,
   "Longitude": 82.37615
 },
 {
   "State": "Uttar Pradesh",
   "BranchName": "Faizabad-B",
   "Latitude": 26.76544,
   "Longitude": 82.122116
 },
 {
   "State": "Uttar Pradesh",
   "BranchName": "Rudauli-B",
   "Latitude": 26.764012,
   "Longitude": 81.753293
 },
 {
   "State": "Uttar Pradesh",
   "BranchName": "Baskhari",
   "Latitude": 26.451589,
   "Longitude": 82.777547
 },
 {
   "State": "Uttar Pradesh",
   "BranchName": "Bahraich",
   "Latitude": 27.556854,
   "Longitude": 81.584008
 },
 {
   "State": "Uttar Pradesh",
   "BranchName": "Bahraich-B",
   "Latitude": 27.584005,
   "Longitude": 81.593025
 },
 {
   "State": "Uttar Pradesh",
   "BranchName": "Nanpara-B",
   "Latitude": 27.862213,
   "Longitude": 81.504449
 },
 {
   "State": "Uttar Pradesh",
   "BranchName": "Balrampur",
   "Latitude": 27.432616,
   "Longitude": 82.190308
 },
 {
   "State": "Uttar Pradesh",
   "BranchName": "Sultanpur",
   "Latitude": 26.255124,
   "Longitude": 82.080366
 },
 {
   "State": "Uttar Pradesh",
   "BranchName": "Jagdishpur",
   "Latitude": 26.46208,
   "Longitude": 81.615324
 },
 {
   "State": "Uttar Pradesh",
   "BranchName": "Bareilly - B",
   "Latitude": 28.391137,
   "Longitude": 79.459219
 },
 {
   "State": "Uttar Pradesh",
   "BranchName": "Nawabganj",
   "Latitude": 28.541731,
   "Longitude": 79.642034
 },
 {
   "State": "Uttar Pradesh",
   "BranchName": "Meerganj-B",
   "Latitude": 28.548411,
   "Longitude": 79.206842
 },
 {
   "State": "Uttar Pradesh",
   "BranchName": "Bareilly-C",
   "Latitude": 28.493105,
   "Longitude": 79.450031
 },
 {
   "State": "Uttar Pradesh",
   "BranchName": "Baheri - B",
   "Latitude": 28.768595,
   "Longitude": 79.491833
 },
 {
   "State": "Uttar Pradesh",
   "BranchName": "Badaun",
   "Latitude": 28.027645,
   "Longitude": 79.122049
 },
 {
   "State": "Uttar Pradesh",
   "BranchName": "Unnao - B",
   "Latitude": 26.554588,
   "Longitude": 80.504462
 },
 {
   "State": "Uttar Pradesh",
   "BranchName": "Bangarmau",
   "Latitude": 26.888133,
   "Longitude": 80.220399
 },
 {
   "State": "Uttar Pradesh",
   "BranchName": "Raebareli",
   "Latitude": 26.220791,
   "Longitude": 81.253332
 },
 {
   "State": "Uttar Pradesh",
   "BranchName": "Lalganj",
   "Latitude": 26.170144,
   "Longitude": 80.97381
 },
 {
   "State": "Uttar Pradesh",
   "BranchName": "Salon",
   "Latitude": 26.022115,
   "Longitude": 81.469167
 },
 {
   "State": "Uttar Pradesh",
   "BranchName": "Jhansi",
   "Latitude": 25.454752,
   "Longitude": 78.534499
 },
 {
   "State": "Uttar Pradesh",
   "BranchName": "Jhansi-B",
   "Latitude": 25.450824,
   "Longitude": 78.590759
 },
 {
   "State": "Uttar Pradesh",
   "BranchName": "Moth",
   "Latitude": 25.727693,
   "Longitude": 78.949935
 },
 {
   "State": "Uttar Pradesh",
   "BranchName": "Pukhrayan",
   "Latitude": 26.215946,
   "Longitude": 79.830596
 },
 {
   "State": "Uttar Pradesh",
   "BranchName": "Orai",
   "Latitude": 26.005337,
   "Longitude": 79.455698
 },
 {
   "State": "Uttar Pradesh",
   "BranchName": "Kalyanpur",
   "Latitude": 26.491453,
   "Longitude": 80.24977
 },
 {
   "State": "Uttar Pradesh",
   "BranchName": "Fatehpur",
   "Latitude": 25.922287,
   "Longitude": 80.797307
 },
 {
   "State": "Uttar Pradesh",
   "BranchName": "Chinhat (Lucknow)",
   "Latitude": 26.925379,
   "Longitude": 80.922974
 },
 {
   "State": "Uttar Pradesh",
   "BranchName": "Bachhrawan-B",
   "Latitude": 26.478095,
   "Longitude": 81.105844
 },
 {
   "State": "Uttar Pradesh",
   "BranchName": "Alambagh - B",
   "Latitude": 26.81799,
   "Longitude": 80.91116
 },
 {
   "State": "Uttar Pradesh",
   "BranchName": "Malihabad",
   "Latitude": 26.938591,
   "Longitude": 80.713876
 },
 {
   "State": "Uttar Pradesh",
   "BranchName": "Sidhauli-B",
   "Latitude": 27.287287,
   "Longitude": 80.83491
 },
 {
   "State": "Uttar Pradesh",
   "BranchName": "Mahmudabad",
   "Latitude": 27.295567,
   "Longitude": 81.1281
 },
 {
   "State": "Uttar Pradesh",
   "BranchName": "Lakhimpur - B",
   "Latitude": 27.949032,
   "Longitude": 80.771812
 },
 {
   "State": "Uttar Pradesh",
   "BranchName": "Gola-B",
   "Latitude": 28.07132,
   "Longitude": 80.478832
 },
 {
   "State": "Uttar Pradesh",
   "BranchName": "Lakhimpur-C",
   "Latitude": 27.945148,
   "Longitude": 80.793724
 },
 {
   "State": "Uttar Pradesh",
   "BranchName": "Shahjahanpur",
   "Latitude": 27.869518,
   "Longitude": 79.913048
 },
 {
   "State": "Uttar Pradesh",
   "BranchName": "Shahjahanpur-B",
   "Latitude": 27.848893,
   "Longitude": 79.881232
 },
 {
   "State": "Uttar Pradesh",
   "BranchName": "Sitapur",
   "Latitude": 27.61312,
   "Longitude": 80.778278
 },
 {
   "State": "Uttar Pradesh",
   "BranchName": "Ram Bagh - B",
   "Latitude": 27.21282,
   "Longitude": 78.053411
 },
 {
   "State": "Uttar Pradesh",
   "BranchName": "Runkata",
   "Latitude": 27.227689,
   "Longitude": 77.870015
 },
 {
   "State": "Uttar Pradesh",
   "BranchName": "Fatehabad Road Agra",
   "Latitude": 27.144699,
   "Longitude": 78.046379
 },
 {
   "State": "Uttar Pradesh",
   "BranchName": "Agra City-B",
   "Latitude": 27.185216,
   "Longitude": 77.984649
 },
 {
   "State": "Uttar Pradesh",
   "BranchName": "Mathura - B",
   "Latitude": 27.484836,
   "Longitude": 77.651378
 },
 {
   "State": "Uttar Pradesh",
   "BranchName": "Kosi Kalan-B",
   "Latitude": 27.785118,
   "Longitude": 77.444779
 },
 {
   "State": "Uttar Pradesh",
   "BranchName": "Narsipuram-Mathura",
   "Latitude": 27.433168,
   "Longitude": 77.698917
 },
 {
   "State": "Uttar Pradesh",
   "BranchName": "Goverdhan-B",
   "Latitude": 27.48439,
   "Longitude": 77.457209
 },
 {
   "State": "Uttar Pradesh",
   "BranchName": "Firozabad-B",
   "Latitude": 27.207773,
   "Longitude": 78.340354
 },
 {
   "State": "Uttar Pradesh",
   "BranchName": "Hathras-B",
   "Latitude": 27.552563,
   "Longitude": 77.995073
 },
 {
   "State": "Uttar Pradesh",
   "BranchName": "Aligarh - B",
   "Latitude": 27.865071,
   "Longitude": 78.073592
 },
 {
   "State": "Uttar Pradesh",
   "BranchName": "Najibabad",
   "Latitude": 29.603791,
   "Longitude": 78.346632
 },
 {
   "State": "Uttar Pradesh",
   "BranchName": "Dhampur",
   "Latitude": 29.320349,
   "Longitude": 78.497918
 },
 {
   "State": "Uttar Pradesh",
   "BranchName": "Chandpur",
   "Latitude": 29.135248,
   "Longitude": 78.273419
 },
 {
   "State": "Uttar Pradesh",
   "BranchName": "Bijnor",
   "Latitude": 29.388688,
   "Longitude": 78.150955
 },
 {
   "State": "Uttar Pradesh",
   "BranchName": "Jansath",
   "Latitude": 29.330012,
   "Longitude": 77.861069
 },
 {
   "State": "Uttar Pradesh",
   "BranchName": "Mawana-B",
   "Latitude": 29.106304,
   "Longitude": 77.914723
 },
 {
   "State": "Uttar Pradesh",
   "BranchName": "Durala",
   "Latitude": 29.06527,
   "Longitude": 77.7147
 },
 {
   "State": "Uttar Pradesh",
   "BranchName": "Durala-B",
   "Latitude": 29.065062,
   "Longitude": 77.714662
 },
 {
   "State": "Uttarakhand",
   "BranchName": "Banbasa",
   "Latitude": 28.990983,
   "Longitude": 80.065953
 },
 {
   "State": "Uttarakhand",
   "BranchName": "Vikasnagar",
   "Latitude": 30.47066,
   "Longitude": 77.76744
 },
 {
   "State": "Uttarakhand",
   "BranchName": "Kankhal",
   "Latitude": 29.937254,
   "Longitude": 78.132259
 },
 {
   "State": "Uttarakhand",
   "BranchName": "Roorkee",
   "Latitude": 30.004032,
   "Longitude": 77.878766
 },
 {
   "State": "Uttarakhand",
   "BranchName": "Luxar",
   "Latitude": 29.679429,
   "Longitude": 78.018497
 },
 {
   "State": "Uttarakhand",
   "BranchName": "Kashipur",
   "Latitude": 29.196209,
   "Longitude": 78.97362
 },
 {
   "State": "Uttarakhand",
   "BranchName": "Rudarpur",
   "Latitude": 28.958656,
   "Longitude": 79.389413
 },
 {
   "State": "Uttarakhand",
   "BranchName": "Gadarpur",
   "Latitude": 29.118655,
   "Longitude": 79.298454
 },
 {
   "State": "Uttarakhand",
   "BranchName": "Haldwani - B",
   "Latitude": 29.248269,
   "Longitude": 79.560989
 },
 {
   "State": "Uttarakhand",
   "BranchName": "Ramnagar",
   "Latitude": 29.389497,
   "Longitude": 79.128427
 },
 {
   "State": "Uttar Pradesh",
   "BranchName": "Hapur",
   "Latitude": 28.73149,
   "Longitude": 77.792842
 },
 {
   "State": "Uttar Pradesh",
   "BranchName": "Garh",
   "Latitude": 28.791984,
   "Longitude": 78.090671
 },
 {
   "State": "Uttar Pradesh",
   "BranchName": "Modinagar",
   "Latitude": 28.827958,
   "Longitude": 77.564118
 },
 {
   "State": "Uttar Pradesh",
   "BranchName": "Simbroli",
   "Latitude": 28.760615,
   "Longitude": 77.98344
 },
 {
   "State": "Uttar Pradesh",
   "BranchName": "Pilakhua",
   "Latitude": 28.699005,
   "Longitude": 77.607402
 },
 {
   "State": "Uttar Pradesh",
   "BranchName": "Dholana",
   "Latitude": 28.587248,
   "Longitude": 77.790435
 },
 {
   "State": "Uttar Pradesh",
   "BranchName": "Vijaynagar - B",
   "Latitude": 28.654035,
   "Longitude": 77.413875
 },
 {
   "State": "Uttar Pradesh",
   "BranchName": "Baghpat-B",
   "Latitude": 29.108583,
   "Longitude": 77.254426
 },
 {
   "State": "Uttar Pradesh",
   "BranchName": "Bulandshahr - B",
   "Latitude": 28.404898,
   "Longitude": 77.841741
 },
 {
   "State": "Uttar Pradesh",
   "BranchName": "Gajraula-B",
   "Latitude": 28.836735,
   "Longitude": 78.23906
 },
 {
   "State": "Uttar Pradesh",
   "BranchName": "Shamli",
   "Latitude": 29.440924,
   "Longitude": 77.317008
 },
 {
   "State": "Uttar Pradesh",
   "BranchName": "UN",
   "Latitude": 29.58378,
   "Longitude": 77.249563
 },
 {
   "State": "Uttar Pradesh",
   "BranchName": "Chutmalpur",
   "Latitude": 30.039531,
   "Longitude": 77.753663
 },
 {
   "State": "Uttar Pradesh",
   "BranchName": "Saharanpur",
   "Latitude": 29.939885,
   "Longitude": 77.532679
 },
 {
   "State": "Uttar Pradesh",
   "BranchName": "Nakur",
   "Latitude": 29.91453,
   "Longitude": 77.30092
 },
 {
   "State": "Uttar Pradesh",
   "BranchName": "Nanauta",
   "Latitude": 29.69508,
   "Longitude": 77.332321
 },
 {
   "State": "Uttar Pradesh",
   "BranchName": "Sarsawa",
   "Latitude": 30.016723,
   "Longitude": 77.411005
 },
 {
   "State": "Uttar Pradesh",
   "BranchName": "Behat",
   "Latitude": 30.175107,
   "Longitude": 77.619816
 },
 {
   "State": "Uttar Pradesh",
   "BranchName": "Nagal",
   "Latitude": 29.840749,
   "Longitude": 77.628344
 },
 {
   "State": "Uttar Pradesh",
   "BranchName": "Muzaffarnagar",
   "Latitude": 29.482786,
   "Longitude": 77.71039
 },
 {
   "State": "Uttar Pradesh",
   "BranchName": "Purkazi",
   "Latitude": 29.637837,
   "Longitude": 77.903417
 },
 {
   "State": "Uttar Pradesh",
   "BranchName": "Khatauli",
   "Latitude": 29.283527,
   "Longitude": 77.732818
 },
 {
   "State": "Uttar Pradesh",
   "BranchName": "RampurTiraha",
   "Latitude": 29.523309,
   "Longitude": 77.70713
 },
 {
   "State": "Uttar Pradesh",
   "BranchName": "Morna-B",
   "Latitude": 29.469912,
   "Longitude": 77.936298
 },
 {
   "State": "Uttar Pradesh",
   "BranchName": "Shahpur",
   "Latitude": 29.281114,
   "Longitude": 77.473104
 },
 {
   "State": "Odisha",
   "BranchName": "Raj Sunakala",
   "Latitude": 20.171846,
   "Longitude": 85.335568
 },
 {
   "State": "Odisha",
   "BranchName": "Bhubaneshwar - C",
   "Latitude": 20.347951,
   "Longitude": 85.819227
 },
 {
   "State": "Odisha",
   "BranchName": "Bhubaneshwar - E",
   "Latitude": 20.236364,
   "Longitude": 85.81581
 },
 {
   "State": "Odisha",
   "BranchName": "Nayagarh",
   "Latitude": 20.191544,
   "Longitude": 85.114954
 },
 {
   "State": "Odisha",
   "BranchName": "Odagaon",
   "Latitude": 20.021306,
   "Longitude": 84.979212
 },
 {
   "State": "Odisha",
   "BranchName": "Khandapara",
   "Latitude": 20.270493,
   "Longitude": 85.175136
 },
 {
   "State": "Odisha",
   "BranchName": "Daspalla",
   "Latitude": 20.324897,
   "Longitude": 84.855697
 },
 {
   "State": "Odisha",
   "BranchName": "Nayagarh - C",
   "Latitude": 20.134254,
   "Longitude": 85.105036
 },
 {
   "State": "Odisha",
   "BranchName": "Bhubaneshwar - B",
   "Latitude": 20.231485,
   "Longitude": 85.844973
 },
 {
   "State": "Odisha",
   "BranchName": "Bhubaneshwar - D",
   "Latitude": 20.286051,
   "Longitude": 85.862666
 },
 {
   "State": "Odisha",
   "BranchName": "Balakati",
   "Latitude": 20.2032,
   "Longitude": 85.8733
 },
 {
   "State": "Odisha",
   "BranchName": "Pipli",
   "Latitude": 20.111925,
   "Longitude": 85.831316
 },
 {
   "State": "Odisha",
   "BranchName": "Puri",
   "Latitude": 19.818774,
   "Longitude": 85.844533
 },
 {
   "State": "Odisha",
   "BranchName": "Sakhigopal",
   "Latitude": 19.946424,
   "Longitude": 85.807701
 },
 {
   "State": "Odisha",
   "BranchName": "Konark",
   "Latitude": 19.891339,
   "Longitude": 86.088686
 },
 {
   "State": "ODISHA",
   "BranchName": "Puri-C",
   "Latitude": 19.823452,
   "Longitude": 85.838848
 },
 {
   "State": "Odisha",
   "BranchName": "Pipli-B",
   "Latitude": 20.117568,
   "Longitude": 85.83572
 },
 {
   "State": "Odisha",
   "BranchName": "Nimapara",
   "Latitude": 20.063939,
   "Longitude": 85.991448
 },
 {
   "State": "Odisha",
   "BranchName": "Khajuriakata",
   "Latitude": 20.705269,
   "Longitude": 85.318633
 },
 {
   "State": "Odisha",
   "BranchName": "Anugul",
   "Latitude": 20.838382,
   "Longitude": 85.102329
 },
 {
   "State": "Odisha",
   "BranchName": "Talcher",
   "Latitude": 20.916447,
   "Longitude": 85.309431
 },
 {
   "State": "Odisha",
   "BranchName": "Angul - B",
   "Latitude": 20.699409,
   "Longitude": 85.17886
 },
 {
   "State": "Odisha",
   "BranchName": "Chendipada",
   "Latitude": 21.086386,
   "Longitude": 84.863642
 },
 {
   "State": "Odisha",
   "BranchName": "Talcher - B",
   "Latitude": 20.944864,
   "Longitude": 85.211102
 },
 {
   "State": "Odisha",
   "BranchName": "Boinda-B",
   "Latitude": 20.919059,
   "Longitude": 84.747481
 },
 {
   "State": "Odisha",
   "BranchName": "Pallahara",
   "Latitude": 21.428719,
   "Longitude": 85.195015
 },
 {
   "State": "Odisha",
   "BranchName": "Athmallik",
   "Latitude": 20.721408,
   "Longitude": 84.541415
 },
 {
   "State": "ODISHA",
   "BranchName": "Talcher - C",
   "Latitude": 20.930799,
   "Longitude": 85.224657
 },
 {
   "State": "Odisha",
   "BranchName": "Banki",
   "Latitude": 20.376636,
   "Longitude": 85.530301
 },
 {
   "State": "Odisha",
   "BranchName": "Kalapathar",
   "Latitude": 20.34944,
   "Longitude": 85.429295
 },
 {
   "State": "Odisha",
   "BranchName": "Chowdar",
   "Latitude": 20.478296,
   "Longitude": 85.976381
 },
 {
   "State": "Odisha",
   "BranchName": "Athagarh",
   "Latitude": 20.521054,
   "Longitude": 85.619417
 },
 {
   "State": "Odisha",
   "BranchName": "Phulnakhara",
   "Latitude": 20.364079,
   "Longitude": 85.887816
 },
 {
   "State": "Odisha",
   "BranchName": "Niali",
   "Latitude": 20.130974,
   "Longitude": 86.06699
 },
 {
   "State": "Odisha",
   "BranchName": "Narasinghpur",
   "Latitude": 20.462513,
   "Longitude": 85.084601
 },
 {
   "State": "Odisha",
   "BranchName": "Nuapatana",
   "Latitude": 20.446537,
   "Longitude": 85.459451
 },
 {
   "State": "Odisha",
   "BranchName": "Dhenkanal",
   "Latitude": 20.666799,
   "Longitude": 85.602188
 },
 {
   "State": "Odisha",
   "BranchName": "Kamakhyanagar",
   "Latitude": 20.932206,
   "Longitude": 85.53206
 },
 {
   "State": "Odisha",
   "BranchName": "Dhenkanal - B",
   "Latitude": 20.595728,
   "Longitude": 85.498145
 },
 {
   "State": "Odisha",
   "BranchName": "Gondia",
   "Latitude": 20.758935,
   "Longitude": 85.799498
 },
 {
   "State": "ODISHA",
   "BranchName": "Kamakshyanagar - B",
   "Latitude": 20.937665,
   "Longitude": 85.533758
 },
 {
   "State": "Odisha",
   "BranchName": "Cuttack",
   "Latitude": 20.43894,
   "Longitude": 85.9143
 },
 {
   "State": "Odisha",
   "BranchName": "Salepur",
   "Latitude": 20.475547,
   "Longitude": 86.019897
 },
 {
   "State": "Odisha",
   "BranchName": "Nischintakoili",
   "Latitude": 20.490782,
   "Longitude": 86.285501
 },
 {
   "State": "ODISHA",
   "BranchName": "Kandarpur",
   "Latitude": 20.418853,
   "Longitude": 86.00042
 },
 {
   "State": "Odisha",
   "BranchName": "Rajnagar",
   "Latitude": 20.572452,
   "Longitude": 86.718702
 },
 {
   "State": "ODISHA",
   "BranchName": "Marshaghai",
   "Latitude": 20.439912,
   "Longitude": 86.467205
 },
 {
   "State": "Odisha",
   "BranchName": "Jajpur Road",
   "Latitude": 20.941992,
   "Longitude": 86.117461
 },
 {
   "State": "Odisha",
   "BranchName": "Jajpurtown",
   "Latitude": 20.82054,
   "Longitude": 86.338894
 },
 {
   "State": "Odisha",
   "BranchName": "Chandikhol",
   "Latitude": 20.759456,
   "Longitude": 86.154656
 },
 {
   "State": "Odisha",
   "BranchName": "Panikoili",
   "Latitude": 20.962126,
   "Longitude": 86.189509
 },
 {
   "State": "Odisha",
   "BranchName": "Chandikhol - B",
   "Latitude": 20.606532,
   "Longitude": 86.243084
 },
 {
   "State": "Odisha",
   "BranchName": "Singhpur-B",
   "Latitude": 20.694101,
   "Longitude": 86.49015
 },
 {
   "State": "Odisha",
   "BranchName": "Duburi",
   "Latitude": 20.9971,
   "Longitude": 85.985313
 },
 {
   "State": "ODISHA",
   "BranchName": "Chhatia",
   "Latitude": 20.607956,
   "Longitude": 86.059383
 },
 {
   "State": "ODISHA",
   "BranchName": "Mangalpur",
   "Latitude": 20.808108,
   "Longitude": 86.513384
 },
 {
   "State": "Odisha",
   "BranchName": "Cuttack - B",
   "Latitude": 20.481935,
   "Longitude": 85.848067
 },
 {
   "State": "Jharkhand",
   "BranchName": "Deoghar",
   "Latitude": 24.504998,
   "Longitude": 86.698522
 },
 {
   "State": "Jharkhand",
   "BranchName": "Dumka",
   "Latitude": 24.280483,
   "Longitude": 87.238906
 },
 {
   "State": "Jharkhand",
   "BranchName": "Hasdiha",
   "Latitude": 24.572897,
   "Longitude": 87.014761
 },
 {
   "State": "Jharkhand",
   "BranchName": "Jarmundi-B",
   "Latitude": 24.39157,
   "Longitude": 87.056938
 },
 {
   "State": "Jharkhand",
   "BranchName": "Dumka-B",
   "Latitude": 24.284131,
   "Longitude": 87.270345
 },
 {
   "State": "Jharkhand",
   "BranchName": "Chatro",
   "Latitude": 24.475677,
   "Longitude": 86.242074
 },
 {
   "State": "JHARKHAND",
   "BranchName": "Hiranpur",
   "Latitude": 24.705063,
   "Longitude": 87.705202
 },
 {
   "State": "Jharkhand",
   "BranchName": "Giridih",
   "Latitude": 24.190629,
   "Longitude": 86.306209
 },
 {
   "State": "Jharkhand",
   "BranchName": "Giridih - B",
   "Latitude": 24.194691,
   "Longitude": 86.305012
 },
 {
   "State": "Jharkhand",
   "BranchName": "Rajdhanwar",
   "Latitude": 24.414999,
   "Longitude": 85.982069
 },
 {
   "State": "Jharkhand",
   "BranchName": "Giridih - C",
   "Latitude": 24.19425,
   "Longitude": 86.311792
 },
 {
   "State": "Jharkhand",
   "BranchName": "Jamua",
   "Latitude": 24.36269,
   "Longitude": 86.150077
 },
 {
   "State": "Jharkhand",
   "BranchName": "Gande",
   "Latitude": 24.171294,
   "Longitude": 86.446909
 },
 {
   "State": "Jharkhand",
   "BranchName": "Bengabad",
   "Latitude": 24.29759,
   "Longitude": 86.36644
 },
 {
   "State": "Jharkhand",
   "BranchName": "Birni",
   "Latitude": 24.277726,
   "Longitude": 85.928725
 },
 {
   "State": "Jharkhand",
   "BranchName": "Godda",
   "Latitude": 24.832524,
   "Longitude": 87.201154
 },
 {
   "State": "Jharkhand",
   "BranchName": "Mahagama",
   "Latitude": 25.030417,
   "Longitude": 87.316417
 },
 {
   "State": "Jharkhand",
   "BranchName": "Pooreyahat",
   "Latitude": 24.601509,
   "Longitude": 87.076215
 },
 {
   "State": "Jharkhand",
   "BranchName": "Boarijor",
   "Latitude": 25.058209,
   "Longitude": 87.477514
 },
 {
   "State": "Jharkhand",
   "BranchName": "Pathargama",
   "Latitude": 24.94535,
   "Longitude": 87.276702
 },
 {
   "State": "Jharkhand",
   "BranchName": "Sahebganj",
   "Latitude": 25.241024,
   "Longitude": 87.627447
 },
 {
   "State": "Jharkhand",
   "BranchName": "Tinpahar",
   "Latitude": 25.007593,
   "Longitude": 87.730701
 },
 {
   "State": "JHARKHAND",
   "BranchName": "Barhet",
   "Latitude": 24.885867,
   "Longitude": 87.609134
 },
 {
   "State": "Jharkhand",
   "BranchName": "Pakur",
   "Latitude": 24.635304,
   "Longitude": 87.849445
 },
 {
   "State": "Jharkhand",
   "BranchName": "Barharwa",
   "Latitude": 24.85419,
   "Longitude": 87.76586
 },
 {
   "State": "Jharkhand",
   "BranchName": "Pakur - B",
   "Latitude": 24.639501,
   "Longitude": 87.848202
 },
 {
   "State": "Jharkhand",
   "BranchName": "Pakur - C",
   "Latitude": 24.635832,
   "Longitude": 87.845192
 },
 {
   "State": "Jharkhand",
   "BranchName": "Maheshpur",
   "Latitude": 24.379915,
   "Longitude": 87.657343
 },
 {
   "State": "Jharkhand",
   "BranchName": "Barharwa-B",
   "Latitude": 24.861131,
   "Longitude": 87.767598
 },
 {
   "State": "Jharkhand",
   "BranchName": "Pakur-D",
   "Latitude": 24.63792,
   "Longitude": 87.856975
 },
 {
   "State": "Jharkhand",
   "BranchName": "Pakur-E",
   "Latitude": 24.636307,
   "Longitude": 87.84491
 },
 {
   "State": "Jharkhand",
   "BranchName": "Phusro",
   "Latitude": 23.764361,
   "Longitude": 85.995332
 },
 {
   "State": "Jharkhand",
   "BranchName": "Dhanbad",
   "Latitude": 23.791239,
   "Longitude": 86.450646
 },
 {
   "State": "Jharkhand",
   "BranchName": "Chirkunda",
   "Latitude": 23.769823,
   "Longitude": 86.788167
 },
 {
   "State": "Jharkhand",
   "BranchName": "Rajganj",
   "Latitude": 23.865187,
   "Longitude": 86.158937
 },
 {
   "State": "Jharkhand",
   "BranchName": "Baliapur-B",
   "Latitude": 23.715016,
   "Longitude": 86.532728
 },
 {
   "State": "Jharkhand",
   "BranchName": "Sariya",
   "Latitude": 24.075481,
   "Longitude": 85.826934
 },
 {
   "State": "Jharkhand",
   "BranchName": "Isri",
   "Latitude": 23.994431,
   "Longitude": 86.012428
 },
 {
   "State": "Jharkhand",
   "BranchName": "Hazaribagh",
   "Latitude": 23.968429,
   "Longitude": 85.341382
 },
 {
   "State": "Jharkhand",
   "BranchName": "Barhi",
   "Latitude": 24.305231,
   "Longitude": 85.419973
 },
 {
   "State": "Jharkhand",
   "BranchName": "Korrah",
   "Latitude": 23.995172,
   "Longitude": 85.381282
 },
 {
   "State": "Jharkhand",
   "BranchName": "Saketpuri",
   "Latitude": 24.014513,
   "Longitude": 85.543419
 },
 {
   "State": "Jharkhand",
   "BranchName": "Barkagaon-B",
   "Latitude": 23.850183,
   "Longitude": 85.217565
 },
 {
   "State": "JHARKHAND",
   "BranchName": "Katkamsandi",
   "Latitude": 24.109284,
   "Longitude": 85.206024
 },
 {
   "State": "Jharkhand",
   "BranchName": "Koderma",
   "Latitude": 24.434111,
   "Longitude": 85.518417
 },
 {
   "State": "Jharkhand",
   "BranchName": "Domchanch",
   "Latitude": 24.471896,
   "Longitude": 85.693667
 },
 {
   "State": "Jharkhand",
   "BranchName": "Satgawan",
   "Latitude": 24.739947,
   "Longitude": 85.786768
 },
 {
   "State": "Jharkhand",
   "BranchName": "Jainagar",
   "Latitude": 24.372638,
   "Longitude": 85.647862
 },
 {
   "State": "Jharkhand",
   "BranchName": "Ramgarh",
   "Latitude": 23.61352,
   "Longitude": 85.522033
 },
 {
   "State": "Jharkhand",
   "BranchName": "Bokaro",
   "Latitude": 23.630931,
   "Longitude": 86.18024
 },
 {
   "State": "Jharkhand",
   "BranchName": "Jaina Morh",
   "Latitude": 23.668019,
   "Longitude": 86.019847
 },
 {
   "State": "Jharkhand",
   "BranchName": "Bokaro - B",
   "Latitude": 23.639824,
   "Longitude": 86.12094
 },
 {
   "State": "Jharkhand",
   "BranchName": "Itkhori",
   "Latitude": 24.290096,
   "Longitude": 85.156137
 },
 {
   "State": "Jharkhand",
   "BranchName": "Chatra",
   "Latitude": 24.215703,
   "Longitude": 84.870925
 },
 {
   "State": "Jharkhand",
   "BranchName": "Simariya",
   "Latitude": 24.057444,
   "Longitude": 84.938077
 },
 {
   "State": "Jharkhand",
   "BranchName": "Gola",
   "Latitude": 23.535549,
   "Longitude": 85.720702
 },
 {
   "State": "Jharkhand",
   "BranchName": "Kujju - B",
   "Latitude": 23.720639,
   "Longitude": 85.507342
 },
 {
   "State": "Jharkhand",
   "BranchName": "Patratu",
   "Latitude": 23.66031,
   "Longitude": 85.306981
 },
 {
   "State": "Chhattisgarh",
   "BranchName": "Ambikapur",
   "Latitude": 23.110303,
   "Longitude": 83.18852
 },
 {
   "State": "Chhattisgarh",
   "BranchName": "Lakhanpur",
   "Latitude": 22.980548,
   "Longitude": 83.043518
 },
 {
   "State": "CHHATTISGARH",
   "BranchName": "Pratappur",
   "Latitude": 23.332858,
   "Longitude": 83.420701
 },
 {
   "State": "CHHATTISGARH",
   "BranchName": "Ramanujganj",
   "Latitude": 23.811604,
   "Longitude": 83.69007
 },
 {
   "State": "Chhattisgarh",
   "BranchName": "Pathalgaon",
   "Latitude": 22.556106,
   "Longitude": 83.459187
 },
 {
   "State": "Chhattisgarh",
   "BranchName": "Jashpur",
   "Latitude": 22.879842,
   "Longitude": 84.142236
 },
 {
   "State": "Chhattisgarh",
   "BranchName": "Kunkuri",
   "Latitude": 22.736231,
   "Longitude": 83.955389
 },
 {
   "State": "CHHATTISGARH",
   "BranchName": "Bagicha",
   "Latitude": 22.976736,
   "Longitude": 83.659333
 },
 {
   "State": "Chhattisgarh",
   "BranchName": "Surajpur",
   "Latitude": 23.215131,
   "Longitude": 82.869996
 },
 {
   "State": "CHHATTISGARH",
   "BranchName": "Wadrafnagar",
   "Latitude": 23.762049,
   "Longitude": 83.200963
 },
 {
   "State": "Chhattisgarh",
   "BranchName": "Bilaspur",
   "Latitude": 22.147189,
   "Longitude": 82.069121
 },
 {
   "State": "Chhattisgarh",
   "BranchName": "Takhatpur",
   "Latitude": 22.128599,
   "Longitude": 81.862241
 },
 {
   "State": "Chhattisgarh",
   "BranchName": "Kota",
   "Latitude": 22.291057,
   "Longitude": 82.02445
 },
 {
   "State": "Chhattisgarh",
   "BranchName": "Pendra Road",
   "Latitude": 22.751175,
   "Longitude": 81.912235
 },
 {
   "State": "Chhattisgarh",
   "BranchName": "Pendra Road-B",
   "Latitude": 22.77475,
   "Longitude": 81.96511
 },
 {
   "State": "Chhattisgarh",
   "BranchName": "Marwahi",
   "Latitude": 23.006564,
   "Longitude": 82.052394
 },
 {
   "State": "Chhattisgarh",
   "BranchName": "Katghora",
   "Latitude": 22.511487,
   "Longitude": 82.554724
 },
 {
   "State": "Chhattisgarh",
   "BranchName": "Pandariya",
   "Latitude": 22.222129,
   "Longitude": 81.404369
 },
 {
   "State": "Chhattisgarh",
   "BranchName": "Manendragarh",
   "Latitude": 23.208648,
   "Longitude": 82.210827
 },
 {
   "State": "CHHATTISGARH",
   "BranchName": "Chirmiri",
   "Latitude": 23.217163,
   "Longitude": 82.346542
 },
 {
   "State": "Chhattisgarh",
   "BranchName": "Korba",
   "Latitude": 22.355684,
   "Longitude": 82.729252
 },
 {
   "State": "Chhattisgarh",
   "BranchName": "Champa",
   "Latitude": 22.043908,
   "Longitude": 82.655334
 },
 {
   "State": "Chhattisgarh",
   "BranchName": "Akaltra-B",
   "Latitude": 22.025484,
   "Longitude": 82.430289
 },
 {
   "State": "Chhattisgarh",
   "BranchName": "Shibarinarayan",
   "Latitude": 21.7238,
   "Longitude": 82.587021
 },
 {
   "State": "Chhattisgarh",
   "BranchName": "Raigarh",
   "Latitude": 21.899583,
   "Longitude": 83.408634
 },
 {
   "State": "Chhattisgarh",
   "BranchName": "Kharsia",
   "Latitude": 21.982714,
   "Longitude": 83.106584
 },
 {
   "State": "Chhattisgarh",
   "BranchName": "Sarangarh - B",
   "Latitude": 21.593149,
   "Longitude": 83.055336
 },
 {
   "State": "Chhattisgarh",
   "BranchName": "Baramkela",
   "Latitude": 21.636072,
   "Longitude": 83.361195
 },
 {
   "State": "Chhattisgarh",
   "BranchName": "Sarsiwa",
   "Latitude": 21.62972,
   "Longitude": 82.933362
 },
 {
   "State": "Chhattisgarh",
   "BranchName": "Tatibandh",
   "Latitude": 21.255863,
   "Longitude": 81.586839
 },
 {
   "State": "Chhattisgarh",
   "BranchName": "Bhillai",
   "Latitude": 21.210696,
   "Longitude": 81.438639
 },
 {
   "State": "Chhattisgarh",
   "BranchName": "Patan",
   "Latitude": 21.04027,
   "Longitude": 81.541893
 },
 {
   "State": "Chhattisgarh",
   "BranchName": "Dhamtari",
   "Latitude": 20.672738,
   "Longitude": 81.578241
 },
 {
   "State": "Chhattisgarh",
   "BranchName": "Rajim",
   "Latitude": 20.975082,
   "Longitude": 81.859148
 },
 {
   "State": "Chhattisgarh",
   "BranchName": "Chhura",
   "Latitude": 20.813411,
   "Longitude": 82.211473
 },
 {
   "State": "Chhattisgarh",
   "BranchName": "Deobhog",
   "Latitude": 19.89583,
   "Longitude": 82.656875
 },
 {
   "State": "Chhattisgarh",
   "BranchName": "Gariaband",
   "Latitude": 20.6346,
   "Longitude": 82.05907
 },
 {
   "State": "Chhattisgarh",
   "BranchName": "Balod",
   "Latitude": 20.73908,
   "Longitude": 81.197153
 },
 {
   "State": "Chhattisgarh",
   "BranchName": "Durg - C",
   "Latitude": 21.196314,
   "Longitude": 81.27129
 },
 {
   "State": "Chhattisgarh",
   "BranchName": "Dhamdha-B",
   "Latitude": 21.461752,
   "Longitude": 81.327494
 },
 {
   "State": "Chhattisgarh",
   "BranchName": "Rajnandgaon",
   "Latitude": 21.10117,
   "Longitude": 81.021965
 },
 {
   "State": "Chhattisgarh",
   "BranchName": "Dongargarh",
   "Latitude": 21.181464,
   "Longitude": 80.765463
 },
 {
   "State": "Chhattisgarh",
   "BranchName": "Dongargaon",
   "Latitude": 20.966185,
   "Longitude": 80.85007
 },
 {
   "State": "Chhattisgarh",
   "BranchName": "Khairagarh",
   "Latitude": 21.42216,
   "Longitude": 80.980554
 },
 {
   "State": "Chhattisgarh",
   "BranchName": "Kanker-B",
   "Latitude": 20.092729,
   "Longitude": 81.593599
 },
 {
   "State": "Chhattisgarh",
   "BranchName": "Gunderdehi",
   "Latitude": 20.94893,
   "Longitude": 81.294932
 },
 {
   "State": "Chhattisgarh",
   "BranchName": "Dallirajhara",
   "Latitude": 20.582371,
   "Longitude": 81.07095
 },
 {
   "State": "Chhattisgarh",
   "BranchName": "Bhatapara",
   "Latitude": 21.734839,
   "Longitude": 81.95647
 },
 {
   "State": "Chhattisgarh",
   "BranchName": "Raipur - H",
   "Latitude": 21.235824,
   "Longitude": 81.657778
 },
 {
   "State": "Chhattisgarh",
   "BranchName": "Saraipali",
   "Latitude": 21.329169,
   "Longitude": 82.999916
 },
 {
   "State": "Chhattisgarh",
   "BranchName": "Pithora",
   "Latitude": 21.253047,
   "Longitude": 82.524503
 },
 {
   "State": "Chhattisgarh",
   "BranchName": "Basna",
   "Latitude": 21.272054,
   "Longitude": 82.831087
 },
 {
   "State": "Chhattisgarh",
   "BranchName": "Bagbahara",
   "Latitude": 21.041224,
   "Longitude": 82.379496
 },
 {
   "State": "Chhattisgarh",
   "BranchName": "Bemetara",
   "Latitude": 21.657496,
   "Longitude": 81.477958
 },
 {
   "State": "Chhattisgarh",
   "BranchName": "Baloda Bazar",
   "Latitude": 21.664216,
   "Longitude": 82.130608
 },
 {
   "State": "Chhattisgarh",
   "BranchName": "Tilda",
   "Latitude": 21.55314,
   "Longitude": 81.802879
 },
 {
   "State": "Chhattisgarh",
   "BranchName": "Kasdol",
   "Latitude": 21.628699,
   "Longitude": 82.419858
 },
 {
   "State": "Chhattisgarh",
   "BranchName": "Palari",
   "Latitude": 21.537265,
   "Longitude": 82.168478
 },
 {
   "State": "Jharkhand",
   "BranchName": "Ghatshila",
   "Latitude": 22.590154,
   "Longitude": 86.465409
 },
 {
   "State": "Jharkhand",
   "BranchName": "Dimna",
   "Latitude": 22.843255,
   "Longitude": 86.217328
 },
 {
   "State": "Jharkhand",
   "BranchName": "Musabani",
   "Latitude": 22.687868,
   "Longitude": 86.142377
 },
 {
   "State": "Jharkhand",
   "BranchName": "Golmuri",
   "Latitude": 22.80325,
   "Longitude": 86.247975
 },
 {
   "State": "Jharkhand",
   "BranchName": "Chakradharpur",
   "Latitude": 22.676466,
   "Longitude": 85.617917
 },
 {
   "State": "Jharkhand",
   "BranchName": "Jagannathpur",
   "Latitude": 22.222521,
   "Longitude": 85.640484
 },
 {
   "State": "Jharkhand",
   "BranchName": "Chakulia-B",
   "Latitude": 22.280999,
   "Longitude": 86.712586
 },
 {
   "State": "Jharkhand",
   "BranchName": "Chaibasa",
   "Latitude": 22.540458,
   "Longitude": 85.804223
 },
 {
   "State": "Jharkhand",
   "BranchName": "Kanke",
   "Latitude": 23.406022,
   "Longitude": 85.318005
 },
 {
   "State": "Jharkhand",
   "BranchName": "Ratu",
   "Latitude": 23.522166,
   "Longitude": 85.106811
 },
 {
   "State": "JHARKHAND",
   "BranchName": "Mandar",
   "Latitude": 23.469154,
   "Longitude": 85.067518
 },
 {
   "State": "Jharkhand",
   "BranchName": "Latehar",
   "Latitude": 23.745003,
   "Longitude": 84.499439
 },
 {
   "State": "Jharkhand",
   "BranchName": "Chandwa",
   "Latitude": 23.673922,
   "Longitude": 84.7402
 },
 {
   "State": "Jharkhand",
   "BranchName": "Manika",
   "Latitude": 23.853612,
   "Longitude": 84.3488
 },
 {
   "State": "Jharkhand",
   "BranchName": "Gumla-B",
   "Latitude": 23.031212,
   "Longitude": 84.540389
 },
 {
   "State": "Jharkhand",
   "BranchName": "Sisai",
   "Latitude": 23.168254,
   "Longitude": 84.762319
 },
 {
   "State": "Jharkhand",
   "BranchName": "Konbir(Basia)",
   "Latitude": 22.857094,
   "Longitude": 84.800022
 },
 {
   "State": "Jharkhand",
   "BranchName": "Daltonganj - B",
   "Latitude": 24.044649,
   "Longitude": 84.096238
 },
 {
   "State": "Jharkhand",
   "BranchName": "Lesliganj",
   "Latitude": 24.037587,
   "Longitude": 84.205302
 },
 {
   "State": "Jharkhand",
   "BranchName": "Japla",
   "Latitude": 24.538655,
   "Longitude": 83.997576
 },
 {
   "State": "Jharkhand",
   "BranchName": "Chhatarpur",
   "Latitude": 24.38019,
   "Longitude": 84.201284
 },
 {
   "State": "Jharkhand",
   "BranchName": "Daltonganj-C",
   "Latitude": 24.052469,
   "Longitude": 84.063529
 },
 {
   "State": "Jharkhand",
   "BranchName": "Bishrampur",
   "Latitude": 24.24447,
   "Longitude": 83.923017
 },
 {
   "State": "Jharkhand",
   "BranchName": "Garhwa",
   "Latitude": 24.149004,
   "Longitude": 83.803896
 },
 {
   "State": "Jharkhand",
   "BranchName": "Nagar Untari",
   "Latitude": 24.286851,
   "Longitude": 83.513872
 },
 {
   "State": "JHARKHAND",
   "BranchName": "Manjhiaon",
   "Latitude": 24.32189,
   "Longitude": 83.817891
 },
 {
   "State": "JHARKHAND",
   "BranchName": "Bhawnathpur",
   "Latitude": 24.475853,
   "Longitude": 83.731009
 },
 {
   "State": "JHARKHAND",
   "BranchName": "Meral",
   "Latitude": 24.161903,
   "Longitude": 83.792686
 },
 {
   "State": "Jharkhand",
   "BranchName": "Hatia",
   "Latitude": 23.303551,
   "Longitude": 85.314169
 },
 {
   "State": "Jharkhand",
   "BranchName": "Chuttiya",
   "Latitude": 23.392332,
   "Longitude": 85.361551
 },
 {
   "State": "Jharkhand",
   "BranchName": "Bundu-B",
   "Latitude": 23.173248,
   "Longitude": 85.58225
 },
 {
   "State": "Jharkhand",
   "BranchName": "Gamharia",
   "Latitude": 22.780051,
   "Longitude": 86.155538
 },
 {
   "State": "Jharkhand",
   "BranchName": "Persudih",
   "Latitude": 22.74034,
   "Longitude": 86.208587
 },
 {
   "State": "Jharkhand",
   "BranchName": "Dimna - B",
   "Latitude": 22.841737,
   "Longitude": 86.218342
 },
 {
   "State": "Jharkhand",
   "BranchName": "Khunti",
   "Latitude": 23.07419,
   "Longitude": 85.281556
 },
 {
   "State": "Odisha",
   "BranchName": "Sohela",
   "Latitude": 21.300226,
   "Longitude": 83.405525
 },
 {
   "State": "Odisha",
   "BranchName": "Padampur",
   "Latitude": 21.007959,
   "Longitude": 83.05733
 },
 {
   "State": "Odisha",
   "BranchName": "Bargarh - B",
   "Latitude": 21.343729,
   "Longitude": 83.603698
 },
 {
   "State": "Odisha",
   "BranchName": "Sohela - B",
   "Latitude": 21.300456,
   "Longitude": 83.405549
 },
 {
   "State": "Odisha",
   "BranchName": "Paikmal",
   "Latitude": 20.929453,
   "Longitude": 82.792104
 },
 {
   "State": "Odisha",
   "BranchName": "Bargarh - D",
   "Latitude": 21.344012,
   "Longitude": 83.605398
 },
 {
   "State": "ODISHA",
   "BranchName": "Prakashpur",
   "Latitude": 21.588513,
   "Longitude": 83.427648
 },
 {
   "State": "ODISHA",
   "BranchName": "Jharbandh",
   "Latitude": 21.060042,
   "Longitude": 82.792814
 },
 {
   "State": "ODISHA",
   "BranchName": "Padampur - C",
   "Latitude": 21.004393,
   "Longitude": 83.057603
 },
 {
   "State": "ODISHA",
   "BranchName": "Bargarh - E",
   "Latitude": 21.346092,
   "Longitude": 83.602829
 },
 {
   "State": "Odisha",
   "BranchName": "Kuchinda",
   "Latitude": 21.748569,
   "Longitude": 84.346906
 },
 {
   "State": "Odisha",
   "BranchName": "Jamankira",
   "Latitude": 21.533848,
   "Longitude": 84.381861
 },
 {
   "State": "Odisha",
   "BranchName": "Jharsuguda",
   "Latitude": 21.865861,
   "Longitude": 84.028763
 },
 {
   "State": "Odisha",
   "BranchName": "Belpahad",
   "Latitude": 21.806347,
   "Longitude": 83.856342
 },
 {
   "State": "Odisha",
   "BranchName": "Brajraj Nagar",
   "Latitude": 21.8282,
   "Longitude": 83.937951
 },
 {
   "State": "ODISHA",
   "BranchName": "Laikera",
   "Latitude": 21.886227,
   "Longitude": 84.213831
 },
 {
   "State": "ODISHA",
   "BranchName": "Panchgaon",
   "Latitude": 21.781969,
   "Longitude": 83.59098
 },
 {
   "State": "Odisha",
   "BranchName": "Sundargarh",
   "Latitude": 22.119786,
   "Longitude": 84.028679
 },
 {
   "State": "Odisha",
   "BranchName": "Lefripada",
   "Latitude": 22.113267,
   "Longitude": 83.813521
 },
 {
   "State": "Odisha",
   "BranchName": "Deogarh",
   "Latitude": 21.544097,
   "Longitude": 84.735015
 },
 {
   "State": "Odisha",
   "BranchName": "Rourkela",
   "Latitude": 22.315691,
   "Longitude": 84.785882
 },
 {
   "State": "Odisha",
   "BranchName": "Rajgangpur",
   "Latitude": 22.203184,
   "Longitude": 84.571444
 },
 {
   "State": "Odisha",
   "BranchName": "Rourkela - C",
   "Latitude": 22.242445,
   "Longitude": 84.807915
 },
 {
   "State": "Odisha",
   "BranchName": "Rourkela - D",
   "Latitude": 22.246205,
   "Longitude": 84.81084
 },
 {
   "State": "Odisha",
   "BranchName": "Bamra",
   "Latitude": 22.052007,
   "Longitude": 84.287845
 },
 {
   "State": "Odisha",
   "BranchName": "Rourkela - E",
   "Latitude": 22.18434,
   "Longitude": 84.86524
 },
 {
   "State": "Odisha",
   "BranchName": "Bonai-B",
   "Latitude": 21.825996,
   "Longitude": 84.946432
 },
 {
   "State": "Odisha",
   "BranchName": "Subdega",
   "Latitude": 22.290572,
   "Longitude": 84.10198
 },
 {
   "State": "Odisha",
   "BranchName": "Badagaon",
   "Latitude": 22.167948,
   "Longitude": 84.294831
 },
 {
   "State": "ODISHA",
   "BranchName": "Bisra",
   "Latitude": 22.251104,
   "Longitude": 84.99364
 },
 {
   "State": "ODISHA",
   "BranchName": "Kuarmunda",
   "Latitude": 22.283652,
   "Longitude": 84.77139
 },
 {
   "State": "Odisha",
   "BranchName": "Sambalpur",
   "Latitude": 21.488802,
   "Longitude": 83.994171
 },
 {
   "State": "Odisha",
   "BranchName": "Sambalpur - B",
   "Latitude": 21.444955,
   "Longitude": 83.995457
 },
 {
   "State": "Odisha",
   "BranchName": "Burla",
   "Latitude": 21.506226,
   "Longitude": 83.879718
 },
 {
   "State": "Odisha",
   "BranchName": "Sambalpur - C",
   "Latitude": 21.487561,
   "Longitude": 83.992305
 },
 {
   "State": "Odisha",
   "BranchName": "Rengali",
   "Latitude": 21.655894,
   "Longitude": 84.054983
 },
 {
   "State": "Odisha",
   "BranchName": "Barpali",
   "Latitude": 21.19195,
   "Longitude": 83.594804
 },
 {
   "State": "Odisha",
   "BranchName": "Atabira",
   "Latitude": 21.373305,
   "Longitude": 83.782561
 },
 {
   "State": "Odisha",
   "BranchName": "Barpali - B",
   "Latitude": 21.184029,
   "Longitude": 83.591375
 },
 {
   "State": "Odisha",
   "BranchName": "Bheden",
   "Latitude": 21.197056,
   "Longitude": 83.762793
 },
 {
   "State": "ODISHA",
   "BranchName": "Godabhaga - B",
   "Latitude": 21.376928,
   "Longitude": 83.789295
 },
 {
   "State": "ODISHA",
   "BranchName": "Naktideul",
   "Latitude": 21.251917,
   "Longitude": 84.537754
 },
 {
   "State": "Odisha",
   "BranchName": "Tarbha",
   "Latitude": 20.727238,
   "Longitude": 83.672429
 },
 {
   "State": "Odisha",
   "BranchName": "Sonepur",
   "Latitude": 20.835709,
   "Longitude": 83.901168
 },
 {
   "State": "Odisha",
   "BranchName": "Birmaharajpur",
   "Latitude": 20.869871,
   "Longitude": 84.047107
 },
 {
   "State": "Odisha",
   "BranchName": "Dungripali",
   "Latitude": 21.039134,
   "Longitude": 83.547999
 },
 {
   "State": "Odisha",
   "BranchName": "Sonepur - B",
   "Latitude": 20.85647,
   "Longitude": 83.887905
 },
 {
   "State": "Haryana",
   "BranchName": "Narwana",
   "Latitude": 29.589728,
   "Longitude": 76.122405
 },
 {
   "State": "Haryana",
   "BranchName": "Kithana",
   "Latitude": 29.55137,
   "Longitude": 76.38574
 },
 {
   "State": "Haryana",
   "BranchName": "Asandh",
   "Latitude": 29.519939,
   "Longitude": 76.603765
 },
 {
   "State": "Haryana",
   "BranchName": "Nising",
   "Latitude": 29.691501,
   "Longitude": 76.750367
 },
 {
   "State": "Haryana",
   "BranchName": "Karnal-C",
   "Latitude": 29.67177,
   "Longitude": 77.010759
 },
 {
   "State": "Haryana",
   "BranchName": "Shahabad",
   "Latitude": 30.153552,
   "Longitude": 76.872606
 },
 {
   "State": "Haryana",
   "BranchName": "Garhi",
   "Latitude": 29.773628,
   "Longitude": 76.127275
 },
 {
   "State": "Haryana",
   "BranchName": "Karnal",
   "Latitude": 29.686863,
   "Longitude": 76.952817
 },
 {
   "State": "Haryana",
   "BranchName": "Indri",
   "Latitude": 29.880183,
   "Longitude": 77.058361
 },
 {
   "State": "Haryana",
   "BranchName": "Yamuna Nagar-B",
   "Latitude": 30.120612,
   "Longitude": 77.266165
 },
 {
   "State": "Haryana",
   "BranchName": "Kurukshetra",
   "Latitude": 29.960927,
   "Longitude": 76.854672
 },
 {
   "State": "Haryana",
   "BranchName": "Ambala",
   "Latitude": 30.335868,
   "Longitude": 76.858352
 },
 {
   "State": "Haryana",
   "BranchName": "Jind-B",
   "Latitude": 29.298888,
   "Longitude": 76.309943
 },
 {
   "State": "Haryana",
   "BranchName": "Charkhi Dadri-B",
   "Latitude": 28.595124,
   "Longitude": 76.278087
 },
 {
   "State": "Haryana",
   "BranchName": "Pataudi",
   "Latitude": 28.324899,
   "Longitude": 76.782194
 },
 {
   "State": "Haryana",
   "BranchName": "Manesar",
   "Latitude": 28.347625,
   "Longitude": 76.938363
 },
 {
   "State": "Haryana",
   "BranchName": "Bhiwani-B",
   "Latitude": 28.795255,
   "Longitude": 76.149448
 },
 {
   "State": "Haryana",
   "BranchName": "Siwani",
   "Latitude": 28.896361,
   "Longitude": 75.598599
 },
 {
   "State": "Haryana",
   "BranchName": "Narnaul",
   "Latitude": 28.050981,
   "Longitude": 76.123074
 },
 {
   "State": "Haryana",
   "BranchName": "Mahendragarh-B",
   "Latitude": 28.275877,
   "Longitude": 76.144004
 },
 {
   "State": "Haryana",
   "BranchName": "Rewari",
   "Latitude": 28.182306,
   "Longitude": 76.628382
 },
 {
   "State": "Haryana",
   "BranchName": "Kosli-B",
   "Latitude": 28.407137,
   "Longitude": 76.459727
 },
 {
   "State": "Haryana",
   "BranchName": "Dharuhera",
   "Latitude": 28.194807,
   "Longitude": 76.788722
 },
 {
   "State": "Haryana",
   "BranchName": "Safidon",
   "Latitude": 29.391729,
   "Longitude": 76.802455
 },
 {
   "State": "Haryana",
   "BranchName": "Bahadurgarh",
   "Latitude": 28.799935,
   "Longitude": 76.959541
 },
 {
   "State": "Delhi",
   "BranchName": "Badarpur-B",
   "Latitude": 28.495161,
   "Longitude": 77.309691
 },
 {
   "State": "Delhi",
   "BranchName": "Sonia vihar - B",
   "Latitude": 28.723538,
   "Longitude": 77.266408
 },
 {
   "State": "Delhi",
   "BranchName": "Najafgarh",
   "Latitude": 28.66405,
   "Longitude": 77.00783
 },
 {
   "State": "Delhi",
   "BranchName": "Sonia Vihar",
   "Latitude": 28.7236,
   "Longitude": 77.266443
 },
 {
   "State": "Haryana",
   "BranchName": "Palwal",
   "Latitude": 28.150134,
   "Longitude": 77.340385
 },
 {
   "State": "Haryana",
   "BranchName": "Gohana-C",
   "Latitude": 29.131703,
   "Longitude": 76.704957
 },
 {
   "State": "Haryana",
   "BranchName": "Gharonda",
   "Latitude": 29.492454,
   "Longitude": 76.908004
 },
 {
   "State": "Haryana",
   "BranchName": "Rohtak",
   "Latitude": 28.902537,
   "Longitude": 76.589335
 },
 {
   "State": "Haryana",
   "BranchName": "Hansi-B",
   "Latitude": 29.099726,
   "Longitude": 75.97621
 },
 {
   "State": "Haryana",
   "BranchName": "Ellenabad",
   "Latitude": 29.445246,
   "Longitude": 74.668782
 },
 {
   "State": "Haryana",
   "BranchName": "Fatehabad",
   "Latitude": 29.501767,
   "Longitude": 75.453384
 },
 {
   "State": "Haryana",
   "BranchName": "Ratia-B",
   "Latitude": 29.67079,
   "Longitude": 75.565401
 },
 {
   "State": "Karnataka",
   "BranchName": "Krishnaraja Nagar",
   "Latitude": 12.447373,
   "Longitude": 76.382137
 },
 {
   "State": "Karnataka",
   "BranchName": "Saraswathipuram",
   "Latitude": 12.303585,
   "Longitude": 76.620664
 },
 {
   "State": "Karnataka",
   "BranchName": "Bannimantap",
   "Latitude": 12.313737,
   "Longitude": 76.673113
 },
 {
   "State": "Karnataka",
   "BranchName": "Elavala",
   "Latitude": 12.341945,
   "Longitude": 76.573412
 },
 {
   "State": "Karnataka",
   "BranchName": "Bannur - B",
   "Latitude": 12.334749,
   "Longitude": 76.86074
 },
 {
   "State": "Karnataka",
   "BranchName": "Hosadurga",
   "Latitude": 13.796509,
   "Longitude": 76.296379
 },
 {
   "State": "Karnataka",
   "BranchName": "Bhadravathi",
   "Latitude": 13.849604,
   "Longitude": 75.697144
 },
 {
   "State": "Karnataka",
   "BranchName": "Channagiri",
   "Latitude": 14.028249,
   "Longitude": 75.931082
 },
 {
   "State": "Karnataka",
   "BranchName": "Chikkamagalur",
   "Latitude": 13.30604,
   "Longitude": 75.78164
 },
 {
   "State": "Karnataka",
   "BranchName": "Kadur",
   "Latitude": 13.547076,
   "Longitude": 76.018172
 },
 {
   "State": "Karnataka",
   "BranchName": "Tarikere",
   "Latitude": 13.696671,
   "Longitude": 75.823456
 },
 {
   "State": "Karnataka",
   "BranchName": "Balehonnur",
   "Latitude": 13.361001,
   "Longitude": 75.459359
 },
 {
   "State": "Karnataka",
   "BranchName": "Mudigere",
   "Latitude": 13.130145,
   "Longitude": 75.642208
 },
 {
   "State": "Karnataka",
   "BranchName": "Karkala",
   "Latitude": 13.238375,
   "Longitude": 74.983097
 },
 {
   "State": "Karnataka",
   "BranchName": "Padubidri",
   "Latitude": 13.14749,
   "Longitude": 74.802565
 },
 {
   "State": "Karnataka",
   "BranchName": "Chitradurga",
   "Latitude": 14.238716,
   "Longitude": 76.38861
 },
 {
   "State": "Karnataka",
   "BranchName": "Hiriyur",
   "Latitude": 13.941077,
   "Longitude": 76.621462
 },
 {
   "State": "Karnataka",
   "BranchName": "Challekere",
   "Latitude": 14.31061,
   "Longitude": 76.641594
 },
 {
   "State": "Karnataka",
   "BranchName": "Holalkere",
   "Latitude": 14.046271,
   "Longitude": 76.185595
 },
 {
   "State": "Karnataka",
   "BranchName": "Davangere",
   "Latitude": 14.473952,
   "Longitude": 75.909879
 },
 {
   "State": "Karnataka",
   "BranchName": "Harpanahalli",
   "Latitude": 14.785422,
   "Longitude": 75.995531
 },
 {
   "State": "Karnataka",
   "BranchName": "Davangere - B",
   "Latitude": 14.472383,
   "Longitude": 75.90959
 },
 {
   "State": "Karnataka",
   "BranchName": "Jagalur",
   "Latitude": 14.517883,
   "Longitude": 76.340932
 },
 {
   "State": "Karnataka",
   "BranchName": "Sante Bennur",
   "Latitude": 14.168667,
   "Longitude": 75.995372
 },
 {
   "State": "Karnataka",
   "BranchName": "Davangere - E",
   "Latitude": 14.443347,
   "Longitude": 75.93192
 },
 {
   "State": "Karnataka",
   "BranchName": "Haveri",
   "Latitude": 14.800033,
   "Longitude": 75.395823
 },
 {
   "State": "Karnataka",
   "BranchName": "Ranibenur",
   "Latitude": 14.604998,
   "Longitude": 75.629308
 },
 {
   "State": "Karnataka",
   "BranchName": "Savanur",
   "Latitude": 14.979137,
   "Longitude": 75.332766
 },
 {
   "State": "Karnataka",
   "BranchName": "Hanagal",
   "Latitude": 14.768503,
   "Longitude": 75.129829
 },
 {
   "State": "Karnataka",
   "BranchName": "Hirekerur",
   "Latitude": 14.461314,
   "Longitude": 75.382984
 },
 {
   "State": "Karnataka",
   "BranchName": "Shiggaon",
   "Latitude": 14.989875,
   "Longitude": 75.220547
 },
 {
   "State": "Karnataka",
   "BranchName": "Guttal",
   "Latitude": 14.838202,
   "Longitude": 75.623348
 },
 {
   "State": "Karnataka",
   "BranchName": "Byadgi-B",
   "Latitude": 14.67789,
   "Longitude": 75.497449
 },
 {
   "State": "Karnataka",
   "BranchName": "Sagar",
   "Latitude": 14.176761,
   "Longitude": 75.022121
 },
 {
   "State": "Karnataka",
   "BranchName": "Harihara",
   "Latitude": 14.512554,
   "Longitude": 75.814316
 },
 {
   "State": "Karnataka",
   "BranchName": "Shimoga",
   "Latitude": 13.933247,
   "Longitude": 75.598171
 },
 {
   "State": "Karnataka",
   "BranchName": "Shiralkoppa",
   "Latitude": 14.377882,
   "Longitude": 75.261506
 },
 {
   "State": "Karnataka",
   "BranchName": "Shimoga - C",
   "Latitude": 13.929088,
   "Longitude": 75.559893
 },
 {
   "State": "Karnataka",
   "BranchName": "Thirthahalli",
   "Latitude": 13.69453,
   "Longitude": 75.235475
 },
 {
   "State": "Karnataka",
   "BranchName": "Honnalli",
   "Latitude": 14.243478,
   "Longitude": 75.644847
 },
 {
   "State": "Karnataka",
   "BranchName": "Davangere - D",
   "Latitude": 14.45508,
   "Longitude": 75.935038
 },
 {
   "State": "Karnataka",
   "BranchName": "Malebennur",
   "Latitude": 14.357726,
   "Longitude": 75.738854
 },
 {
   "State": "Karnataka",
   "BranchName": "Kundapura",
   "Latitude": 13.598758,
   "Longitude": 74.695993
 },
 {
   "State": "Karnataka",
   "BranchName": "Udupi",
   "Latitude": 13.339504,
   "Longitude": 74.718527
 },
 {
   "State": "Karnataka",
   "BranchName": "Siddapura",
   "Latitude": 13.666447,
   "Longitude": 74.910134
 },
 {
   "State": "Kerala",
   "BranchName": "Harippad",
   "Latitude": 9.317763,
   "Longitude": 76.464026
 },
 {
   "State": "Kerala",
   "BranchName": "Harippad - B",
   "Latitude": 9.17721,
   "Longitude": 76.517553
 },
 {
   "State": "Kerala",
   "BranchName": "Mavelikkara",
   "Latitude": 9.228879,
   "Longitude": 76.510181
 },
 {
   "State": "Kerala",
   "BranchName": "Mannar",
   "Latitude": 9.306346,
   "Longitude": 76.539624
 },
 {
   "State": "Kerala",
   "BranchName": "Pathanapuram",
   "Latitude": 9.088393,
   "Longitude": 76.849475
 },
 {
   "State": "Kerala",
   "BranchName": "Chengannur",
   "Latitude": 9.312008,
   "Longitude": 76.608425
 },
 {
   "State": "Kerala",
   "BranchName": "Thamarakulam",
   "Latitude": 9.149902,
   "Longitude": 76.615625
 },
 {
   "State": "Kerala",
   "BranchName": "Adoor - B",
   "Latitude": 9.136091,
   "Longitude": 76.74147
 },
 {
   "State": "Kerala",
   "BranchName": "Mallappally",
   "Latitude": 9.427975,
   "Longitude": 76.697379
 },
 {
   "State": "Kerala",
   "BranchName": "Konni",
   "Latitude": 9.230724,
   "Longitude": 76.852413
 },
 {
   "State": "Kerala",
   "BranchName": "Ranni",
   "Latitude": 9.375113,
   "Longitude": 76.770414
 },
 {
   "State": "Kerala",
   "BranchName": "Pandalam",
   "Latitude": 9.220333,
   "Longitude": 76.681066
 },
 {
   "State": "Kerala",
   "BranchName": "Kattappana-B",
   "Latitude": 9.750335,
   "Longitude": 77.112413
 },
 {
   "State": "Kerala",
   "BranchName": "Thodupuzha",
   "Latitude": 9.904171,
   "Longitude": 76.710095
 },
 {
   "State": "Kerala",
   "BranchName": "Aroor",
   "Latitude": 9.845634,
   "Longitude": 76.308274
 },
 {
   "State": "Kerala",
   "BranchName": "Thoppumpady",
   "Latitude": 9.954313,
   "Longitude": 76.243811
 },
 {
   "State": "Kerala",
   "BranchName": "Palluruthy",
   "Latitude": 9.913436,
   "Longitude": 76.281029
 },
 {
   "State": "Kerala",
   "BranchName": "Muvattupuzha-B",
   "Latitude": 10.11021,
   "Longitude": 76.415314
 },
 {
   "State": "Kerala",
   "BranchName": "Cherthala",
   "Latitude": 9.625707,
   "Longitude": 76.29717
 },
 {
   "State": "Kerala",
   "BranchName": "Ernamalloor",
   "Latitude": 9.772185,
   "Longitude": 76.314575
 },
 {
   "State": "Kerala",
   "BranchName": "Ambalappuzha",
   "Latitude": 9.380367,
   "Longitude": 76.35929
 },
 {
   "State": "Kerala",
   "BranchName": "Kalavur",
   "Latitude": 9.573243,
   "Longitude": 76.329138
 },
 {
   "State": "Kerala",
   "BranchName": "Punnapra",
   "Latitude": 9.466509,
   "Longitude": 76.337269
 },
 {
   "State": "Kerala",
   "BranchName": "Alappuzha",
   "Latitude": 9.464968,
   "Longitude": 76.341845
 },
 {
   "State": "Kerala",
   "BranchName": "Vaikom",
   "Latitude": 9.754671,
   "Longitude": 76.406793
 },
 {
   "State": "Kerala",
   "BranchName": "Kaduthuruthy",
   "Latitude": 9.812416,
   "Longitude": 76.447338
 },
 {
   "State": "Kerala",
   "BranchName": "Kottayam - B",
   "Latitude": 9.587252,
   "Longitude": 76.527322
 },
 {
   "State": "Kerala",
   "BranchName": "Karukachal",
   "Latitude": 9.517965,
   "Longitude": 76.64211
 },
 {
   "State": "Kerala",
   "BranchName": "Pampady",
   "Latitude": 9.557065,
   "Longitude": 76.681579
 },
 {
   "State": "Kerala",
   "BranchName": "Mundakayam",
   "Latitude": 9.545332,
   "Longitude": 76.873895
 },
 {
   "State": "Kerala",
   "BranchName": "Erattupetta",
   "Latitude": 9.693364,
   "Longitude": 76.779336
 },
 {
   "State": "Kerala",
   "BranchName": "Chingavanam",
   "Latitude": 9.5082,
   "Longitude": 76.536363
 },
 {
   "State": "Kerala",
   "BranchName": "Pala",
   "Latitude": 9.719496,
   "Longitude": 76.682468
 },
 {
   "State": "Kerala",
   "BranchName": "Changanacherry",
   "Latitude": 9.441805,
   "Longitude": 76.55076
 },
 {
   "State": "Kerala",
   "BranchName": "Thalassery",
   "Latitude": 11.769367,
   "Longitude": 75.512415
 },
 {
   "State": "Kerala",
   "BranchName": "Kannur",
   "Latitude": 11.909539,
   "Longitude": 75.360391
 },
 {
   "State": "Kerala",
   "BranchName": "Payyannur",
   "Latitude": 12.079304,
   "Longitude": 75.240654
 },
 {
   "State": "Kerala",
   "BranchName": "Tirur",
   "Latitude": 10.959608,
   "Longitude": 75.890316
 },
 {
   "State": "Kerala",
   "BranchName": "Areekode",
   "Latitude": 11.227379,
   "Longitude": 76.056195
 },
 {
   "State": "Kerala",
   "BranchName": "Vengara",
   "Latitude": 11.057792,
   "Longitude": 75.986649
 },
 {
   "State": "Kerala",
   "BranchName": "Kuttipuram",
   "Latitude": 10.84949,
   "Longitude": 76.031312
 },
 {
   "State": "Kerala",
   "BranchName": "Farook",
   "Latitude": 11.173026,
   "Longitude": 75.854429
 },
 {
   "State": "Kerala",
   "BranchName": "Vadakara",
   "Latitude": 11.623369,
   "Longitude": 75.60381
 },
 {
   "State": "Kerala",
   "BranchName": "Kozhikode - B",
   "Latitude": 11.30439,
   "Longitude": 75.785306
 },
 {
   "State": "Kerala",
   "BranchName": "Paravoor",
   "Latitude": 10.148691,
   "Longitude": 76.251628
 },
 {
   "State": "Kerala",
   "BranchName": "Thriprayar",
   "Latitude": 10.416446,
   "Longitude": 76.099662
 },
 {
   "State": "Kerala",
   "BranchName": "Irinjalakkuda",
   "Latitude": 10.353325,
   "Longitude": 76.209555
 },
 {
   "State": "Kerala",
   "BranchName": "Vadanappally",
   "Latitude": 10.423648,
   "Longitude": 76.090984
 },
 {
   "State": "Kerala",
   "BranchName": "Pattikad",
   "Latitude": 10.540284,
   "Longitude": 76.261991
 },
 {
   "State": "Kerala",
   "BranchName": "Chalakudy",
   "Latitude": 10.30076,
   "Longitude": 76.33069
 },
 {
   "State": "Kerala",
   "BranchName": "Kunnamkulam",
   "Latitude": 10.657934,
   "Longitude": 76.058036
 },
 {
   "State": "Kerala",
   "BranchName": "Kodungallur",
   "Latitude": 10.225536,
   "Longitude": 76.201138
 },
 {
   "State": "Kerala",
   "BranchName": "Chavakkad",
   "Latitude": 10.636584,
   "Longitude": 75.986054
 },
 {
   "State": "Kerala",
   "BranchName": "Ponnani",
   "Latitude": 10.685472,
   "Longitude": 75.961687
 },
 {
   "State": "Kerala",
   "BranchName": "Vythiri",
   "Latitude": 11.616685,
   "Longitude": 76.081633
 },
 {
   "State": "Kerala",
   "BranchName": "Manandavadi",
   "Latitude": 11.809259,
   "Longitude": 76.014694
 },
 {
   "State": "Kerala",
   "BranchName": "Ambalavayal",
   "Latitude": 11.618985,
   "Longitude": 76.209088
 },
 {
   "State": "Kerala",
   "BranchName": "Pulpally",
   "Latitude": 11.794788,
   "Longitude": 76.171089
 },
 {
   "State": "Kerala",
   "BranchName": "Balussery",
   "Latitude": 11.46485,
   "Longitude": 75.818727
 },
 {
   "State": "Kerala",
   "BranchName": "Thamarassery",
   "Latitude": 11.409582,
   "Longitude": 75.946238
 },
 {
   "State": "Kerala",
   "BranchName": "Koyilandi",
   "Latitude": 11.451121,
   "Longitude": 75.711491
 },
 {
   "State": "Kerala",
   "BranchName": "Perambra",
   "Latitude": 11.605101,
   "Longitude": 75.78722
 },
 {
   "State": "Tamil Nadu",
   "BranchName": "Vilavancode",
   "Latitude": 8.303658,
   "Longitude": 77.222068
 },
 {
   "State": "Tamil Nadu",
   "BranchName": "Tovalai",
   "Latitude": 8.170875,
   "Longitude": 77.396359
 },
 {
   "State": "Tamil Nadu",
   "BranchName": "Agastheeswaram",
   "Latitude": 8.157291,
   "Longitude": 77.416463
 },
 {
   "State": "Tamil Nadu",
   "BranchName": "KALKULAM",
   "Latitude": 8.240033,
   "Longitude": 77.318226
 },
 {
   "State": "Tamil Nadu",
   "BranchName": "Palayamkottai",
   "Latitude": 8.699816,
   "Longitude": 77.721566
 },
 {
   "State": "Tamil Nadu",
   "BranchName": "Thoothukudi",
   "Latitude": 8.796387,
   "Longitude": 78.138951
 },
 {
   "State": "Tamil Nadu",
   "BranchName": "Tiruchendur",
   "Latitude": 8.508411,
   "Longitude": 78.106486
 },
 {
   "State": "Tamil Nadu",
   "BranchName": "Srivaikuntam",
   "Latitude": 8.605462,
   "Longitude": 77.936812
 },
 {
   "State": "Tamil Nadu",
   "BranchName": "Tiruchengode",
   "Latitude": 11.413076,
   "Longitude": 77.912345
 },
 {
   "State": "Tamil Nadu",
   "BranchName": "Namakkal-B",
   "Latitude": 11.244541,
   "Longitude": 78.173681
 },
 {
   "State": "Tamil Nadu",
   "BranchName": "Perundurai",
   "Latitude": 11.26682,
   "Longitude": 77.605875
 },
 {
   "State": "Tamil Nadu",
   "BranchName": "AVINASHI",
   "Latitude": 11.195688,
   "Longitude": 77.26949
 },
 {
   "State": "Tamil Nadu",
   "BranchName": "Ooty",
   "Latitude": 11.399999,
   "Longitude": 76.700266
 },
 {
   "State": "Tamil Nadu",
   "BranchName": "Kundah",
   "Latitude": 11.269117,
   "Longitude": 76.648886
 },
 {
   "State": "Tamil Nadu",
   "BranchName": "Coonoor",
   "Latitude": 11.343211,
   "Longitude": 76.786115
 },
 {
   "State": "Kerala",
   "BranchName": "Chittoor",
   "Latitude": 10.700845,
   "Longitude": 76.746672
 },
 {
   "State": "Kerala",
   "BranchName": "Ottapalam",
   "Latitude": 10.704016,
   "Longitude": 76.335409
 },
 {
   "State": "Kerala",
   "BranchName": "Palakkad",
   "Latitude": 10.800111,
   "Longitude": 76.634192
 },
 {
   "State": "Kerala",
   "BranchName": "Vadakkanchery",
   "Latitude": 10.647764,
   "Longitude": 76.572698
 },
 {
   "State": "Kerala",
   "BranchName": "Mannarkkad-B",
   "Latitude": 10.995641,
   "Longitude": 76.516362
 },
 {
   "State": "Kerala",
   "BranchName": "Attappadi",
   "Latitude": 11.102846,
   "Longitude": 76.65142
 },
 {
   "State": "Kerala",
   "BranchName": "Perinthalmanna",
   "Latitude": 10.976339,
   "Longitude": 76.229263
 },
 {
   "State": "Kerala",
   "BranchName": "Nilambur",
   "Latitude": 11.282884,
   "Longitude": 76.236689
 },
 {
   "State": "Tamil Nadu",
   "BranchName": "VAZHAPADI",
   "Latitude": 11.660086,
   "Longitude": 78.392356
 },
 {
   "State": "Tamil Nadu",
   "BranchName": "ATTUR",
   "Latitude": 11.598414,
   "Longitude": 78.587267
 },
 {
   "State": "Tamil Nadu",
   "BranchName": "SALEM-B",
   "Latitude": 11.704784,
   "Longitude": 78.162607
 },
 {
   "State": "Tamil Nadu",
   "BranchName": "METTUR",
   "Latitude": 11.812324,
   "Longitude": 77.843935
 },
 {
   "State": "Tamil Nadu",
   "BranchName": "Yercaud",
   "Latitude": 11.782394,
   "Longitude": 78.218493
 },
 {
   "State": "Tamil Nadu",
   "BranchName": "Rasipuram-B",
   "Latitude": 11.458152,
   "Longitude": 78.189326
 },
 {
   "State": "Tamil Nadu",
   "BranchName": "Harur",
   "Latitude": 12.054901,
   "Longitude": 78.480434
 },
 {
   "State": "Tamil Nadu",
   "BranchName": "Thuraiyur",
   "Latitude": 11.142347,
   "Longitude": 78.587769
 },
 {
   "State": "Tamil Nadu",
   "BranchName": "Thottiyam",
   "Latitude": 10.996956,
   "Longitude": 78.340129
 },
 {
   "State": "Tamil Nadu",
   "BranchName": "Manachanallur",
   "Latitude": 10.922575,
   "Longitude": 78.707658
 },
 {
   "State": "Tamil Nadu",
   "BranchName": "Radhapuram",
   "Latitude": 8.382144,
   "Longitude": 77.612573
 },
 {
   "State": "Tamil Nadu",
   "BranchName": "Kadayanallur",
   "Latitude": 8.978477,
   "Longitude": 77.303464
 },
 {
   "State": "Tamil Nadu",
   "BranchName": "Srivilliputhur",
   "Latitude": 9.50159,
   "Longitude": 77.630595
 },
 {
   "State": "Tamil Nadu",
   "BranchName": "Kullursandai",
   "Latitude": 9.618839,
   "Longitude": 77.954817
 },
 {
   "State": "Tamil Nadu",
   "BranchName": "Jayamkondam",
   "Latitude": 11.211603,
   "Longitude": 79.364338
 },
 {
   "State": "Karnataka",
   "BranchName": "Koppal",
   "Latitude": 15.35631,
   "Longitude": 76.15559
 },
 {
   "State": "Karnataka",
   "BranchName": "Gangawathi",
   "Latitude": 15.433946,
   "Longitude": 76.526567
 },
 {
   "State": "Karnataka",
   "BranchName": "Kushtagi",
   "Latitude": 15.751112,
   "Longitude": 76.194895
 },
 {
   "State": "Karnataka",
   "BranchName": "Bagalkot",
   "Latitude": 16.178068,
   "Longitude": 75.661384
 },
 {
   "State": "Karnataka",
   "BranchName": "Mudhol",
   "Latitude": 16.323902,
   "Longitude": 75.297555
 },
 {
   "State": "Karnataka",
   "BranchName": "Ilkal",
   "Latitude": 15.977516,
   "Longitude": 76.110851
 },
 {
   "State": "Karnataka",
   "BranchName": "Jamkhandi",
   "Latitude": 16.500129,
   "Longitude": 75.28694
 },
 {
   "State": "Karnataka",
   "BranchName": "Mahalingpur",
   "Latitude": 16.42708,
   "Longitude": 75.110577
 },
 {
   "State": "Karnataka",
   "BranchName": "Badami-B",
   "Latitude": 15.912885,
   "Longitude": 75.682206
 },
 {
   "State": "Karnataka",
   "BranchName": "Athni",
   "Latitude": 16.721299,
   "Longitude": 75.065712
 },
 {
   "State": "Karnataka",
   "BranchName": "Athni - B",
   "Latitude": 16.732499,
   "Longitude": 75.053884
 },
 {
   "State": "Karnataka",
   "BranchName": "Belgaum",
   "Latitude": 15.873851,
   "Longitude": 74.53778
 },
 {
   "State": "Karnataka",
   "BranchName": "Ankalgi",
   "Latitude": 16.02321,
   "Longitude": 74.69039
 },
 {
   "State": "Karnataka",
   "BranchName": "Bail Hongal",
   "Latitude": 15.824902,
   "Longitude": 74.856833
 },
 {
   "State": "Karnataka",
   "BranchName": "Belgaum - B",
   "Latitude": 15.887337,
   "Longitude": 74.543231
 },
 {
   "State": "Karnataka",
   "BranchName": "Hukkeri",
   "Latitude": 16.235712,
   "Longitude": 74.607285
 },
 {
   "State": "Karnataka",
   "BranchName": "Saudatti",
   "Latitude": 15.763792,
   "Longitude": 75.10884
 },
 {
   "State": "Karnataka",
   "BranchName": "Gokak - B",
   "Latitude": 16.161249,
   "Longitude": 74.82444
 },
 {
   "State": "Karnataka",
   "BranchName": "Hirebhagewadi",
   "Latitude": 15.777957,
   "Longitude": 74.637055
 },
 {
   "State": "Karnataka",
   "BranchName": "Hindalga",
   "Latitude": 15.864589,
   "Longitude": 74.474581
 },
 {
   "State": "Karnataka",
   "BranchName": "Ramdurg-B",
   "Latitude": 15.952237,
   "Longitude": 75.294055
 },
 {
   "State": "Karnataka",
   "BranchName": "Sadalaga",
   "Latitude": 16.42349,
   "Longitude": 74.572021
 },
 {
   "State": "Karnataka",
   "BranchName": "Raybagh",
   "Latitude": 16.502496,
   "Longitude": 74.775999
 },
 {
   "State": "Karnataka",
   "BranchName": "Nippani",
   "Latitude": 16.388746,
   "Longitude": 74.377722
 },
 {
   "State": "Karnataka",
   "BranchName": "Mudalgi",
   "Latitude": 16.337512,
   "Longitude": 74.960547
 },
 {
   "State": "Karnataka",
   "BranchName": "Mudalgi - B",
   "Latitude": 16.338151,
   "Longitude": 74.964444
 },
 {
   "State": "Karnataka",
   "BranchName": "Chikkodi - B",
   "Latitude": 16.422037,
   "Longitude": 74.572412
 },
 {
   "State": "Karnataka",
   "BranchName": "Ugar-Khurd",
   "Latitude": 16.66772,
   "Longitude": 74.819567
 },
 {
   "State": "Karnataka",
   "BranchName": "Harugeri",
   "Latitude": 16.511431,
   "Longitude": 74.946769
 },
 {
   "State": "Karnataka",
   "BranchName": "Kagawad",
   "Latitude": 16.696819,
   "Longitude": 74.726391
 },
 {
   "State": "Karnataka",
   "BranchName": "Gadag",
   "Latitude": 15.410588,
   "Longitude": 75.626513
 },
 {
   "State": "Karnataka",
   "BranchName": "Ron",
   "Latitude": 15.7006,
   "Longitude": 75.740483
 },
 {
   "State": "Karnataka",
   "BranchName": "Mundargi",
   "Latitude": 15.210432,
   "Longitude": 75.88467
 },
 {
   "State": "Karnataka",
   "BranchName": "Laxmeshwar",
   "Latitude": 15.124628,
   "Longitude": 75.463629
 },
 {
   "State": "Karnataka",
   "BranchName": "Nargund",
   "Latitude": 15.723265,
   "Longitude": 75.371621
 },
 {
   "State": "Karnataka",
   "BranchName": "Hubli",
   "Latitude": 15.35119,
   "Longitude": 75.10133
 },
 {
   "State": "Karnataka",
   "BranchName": "Hubli - B",
   "Latitude": 15.322604,
   "Longitude": 75.130188
 },
 {
   "State": "Karnataka",
   "BranchName": "Hubli - C",
   "Latitude": 15.360321,
   "Longitude": 75.102234
 },
 {
   "State": "Karnataka",
   "BranchName": "Hubli - D",
   "Latitude": 15.352289,
   "Longitude": 75.100483
 },
 {
   "State": "Karnataka",
   "BranchName": "Hubli - F",
   "Latitude": 15.363458,
   "Longitude": 75.141088
 },
 {
   "State": "Karnataka",
   "BranchName": "Khannapur",
   "Latitude": 15.653062,
   "Longitude": 74.503389
 },
 {
   "State": "Karnataka",
   "BranchName": "Dharwad",
   "Latitude": 15.458136,
   "Longitude": 74.995687
 },
 {
   "State": "Karnataka",
   "BranchName": "Dandeli",
   "Latitude": 15.262778,
   "Longitude": 74.612275
 },
 {
   "State": "Karnataka",
   "BranchName": "Kalghatagi",
   "Latitude": 15.185717,
   "Longitude": 74.976184
 },
 {
   "State": "Karnataka",
   "BranchName": "Dharwad-C",
   "Latitude": 15.471431,
   "Longitude": 74.988511
 },
 {
   "State": "Karnataka",
   "BranchName": "Sirsi",
   "Latitude": 14.61418,
   "Longitude": 74.844881
 },
 {
   "State": "Karnataka",
   "BranchName": "Murudeswara",
   "Latitude": 14.100365,
   "Longitude": 74.493615
 },
 {
   "State": "Karnataka",
   "BranchName": "Karwar",
   "Latitude": 14.813021,
   "Longitude": 74.145754
 },
 {
   "State": "Karnataka",
   "BranchName": "Kumta-B",
   "Latitude": 14.431786,
   "Longitude": 74.430217
 },
 {
   "State": "Karnataka",
   "BranchName": "Ankola",
   "Latitude": 14.648805,
   "Longitude": 74.30209
 },
 {
   "State": "Karnataka",
   "BranchName": "Sirguppa",
   "Latitude": 15.618739,
   "Longitude": 76.890934
 },
 {
   "State": "Karnataka",
   "BranchName": "Bellary",
   "Latitude": 15.14048,
   "Longitude": 76.939725
 },
 {
   "State": "Karnataka",
   "BranchName": "Hospet",
   "Latitude": 15.259916,
   "Longitude": 76.392527
 },
 {
   "State": "Karnataka",
   "BranchName": "Bellary - B",
   "Latitude": 15.160383,
   "Longitude": 76.935723
 },
 {
   "State": "Karnataka",
   "BranchName": "Hospet - B",
   "Latitude": 15.272108,
   "Longitude": 76.405944
 },
 {
   "State": "Karnataka",
   "BranchName": "Kampli",
   "Latitude": 15.403434,
   "Longitude": 76.608681
 },
 {
   "State": "Karnataka",
   "BranchName": "Hb Halli",
   "Latitude": 15.054741,
   "Longitude": 76.216114
 },
 {
   "State": "Karnataka",
   "BranchName": "Bellary - C",
   "Latitude": 15.151927,
   "Longitude": 76.924625
 },
 {
   "State": "Karnataka",
   "BranchName": "Hospet - C",
   "Latitude": 15.273527,
   "Longitude": 76.406561
 },
 {
   "State": "Karnataka",
   "BranchName": "Kudalgi",
   "Latitude": 14.902639,
   "Longitude": 76.396389
 },
 {
   "State": "Karnataka",
   "BranchName": "Bellary F",
   "Latitude": 15.157081,
   "Longitude": 76.921358
 },
 {
   "State": "Karnataka",
   "BranchName": "Sandur - A",
   "Latitude": 15.134148,
   "Longitude": 76.606526
 },
 {
   "State": "Karnataka",
   "BranchName": "Bidar",
   "Latitude": 17.921718,
   "Longitude": 77.515702
 },
 {
   "State": "Karnataka",
   "BranchName": "Humnabad",
   "Latitude": 17.768849,
   "Longitude": 77.122467
 },
 {
   "State": "Karnataka",
   "BranchName": "Baswa Kalyan",
   "Latitude": 17.857466,
   "Longitude": 76.948722
 },
 {
   "State": "Karnataka",
   "BranchName": "Aurad",
   "Latitude": 18.251741,
   "Longitude": 77.418925
 },
 {
   "State": "Karnataka",
   "BranchName": "Bhalki",
   "Latitude": 18.05675,
   "Longitude": 77.217002
 },
 {
   "State": "Karnataka",
   "BranchName": "Baswaklyan - C",
   "Latitude": 17.882416,
   "Longitude": 76.959913
 },
 {
   "State": "Karnataka",
   "BranchName": "Kalburgi - B",
   "Latitude": 17.358201,
   "Longitude": 76.810778
 },
 {
   "State": "Karnataka",
   "BranchName": "Kalburgi - C",
   "Latitude": 17.319669,
   "Longitude": 76.813992
 },
 {
   "State": "Karnataka",
   "BranchName": "Aland",
   "Latitude": 17.566436,
   "Longitude": 76.557098
 },
 {
   "State": "Karnataka",
   "BranchName": "Raichur",
   "Latitude": 16.203882,
   "Longitude": 77.338912
 },
 {
   "State": "Karnataka",
   "BranchName": "Sindhnur",
   "Latitude": 15.76932,
   "Longitude": 76.763165
 },
 {
   "State": "Karnataka",
   "BranchName": "Lingsur",
   "Latitude": 16.154187,
   "Longitude": 76.529679
 },
 {
   "State": "Karnataka",
   "BranchName": "Manavi",
   "Latitude": 15.998805,
   "Longitude": 77.044298
 },
 {
   "State": "Karnataka",
   "BranchName": "Raichur - B",
   "Latitude": 16.199301,
   "Longitude": 77.341138
 },
 {
   "State": "Karnataka",
   "BranchName": "Devadurga",
   "Latitude": 16.42283,
   "Longitude": 76.924477
 },
 {
   "State": "Karnataka",
   "BranchName": "Raichur-D",
   "Latitude": 16.201884,
   "Longitude": 77.340993
 },
 {
   "State": "Karnataka",
   "BranchName": "Vijayapur - A",
   "Latitude": 16.820485,
   "Longitude": 75.719248
 },
 {
   "State": "Karnataka",
   "BranchName": "Indi",
   "Latitude": 17.168438,
   "Longitude": 75.955263
 },
 {
   "State": "Karnataka",
   "BranchName": "Sindhagi",
   "Latitude": 16.915783,
   "Longitude": 76.228401
 },
 {
   "State": "Karnataka",
   "BranchName": "Muddebihal",
   "Latitude": 16.341009,
   "Longitude": 76.125643
 },
 {
   "State": "Karnataka",
   "BranchName": "Vijayapur - B",
   "Latitude": 16.805021,
   "Longitude": 75.716987
 },
 {
   "State": "Karnataka",
   "BranchName": "Vijayapur - C",
   "Latitude": 16.804177,
   "Longitude": 75.716059
 },
 {
   "State": "Karnataka",
   "BranchName": "Basavana Bagevadi",
   "Latitude": 16.577755,
   "Longitude": 75.963144
 },
 {
   "State": "Karnataka",
   "BranchName": "Chadchan",
   "Latitude": 17.312068,
   "Longitude": 75.669999
 },
 {
   "State": "Karnataka",
   "BranchName": "Talikot",
   "Latitude": 16.479435,
   "Longitude": 76.311735
 },
 {
   "State": "Karnataka",
   "BranchName": "Zalki",
   "Latitude": 17.25629,
   "Longitude": 75.799461
 },
 {
   "State": "Karnataka",
   "BranchName": "Kalburgi - A",
   "Latitude": 17.328488,
   "Longitude": 76.862377
 },
 {
   "State": "Karnataka",
   "BranchName": "Shahpur",
   "Latitude": 16.709461,
   "Longitude": 76.842581
 },
 {
   "State": "Karnataka",
   "BranchName": "Yadagiri",
   "Latitude": 16.748122,
   "Longitude": 77.138354
 },
 {
   "State": "Karnataka",
   "BranchName": "Shorapur",
   "Latitude": 16.525332,
   "Longitude": 76.761363
 },
 {
   "State": "Karnataka",
   "BranchName": "Sedam",
   "Latitude": 17.170168,
   "Longitude": 77.274648
 },
 {
   "State": "Karnataka",
   "BranchName": "Chincholi",
   "Latitude": 17.440529,
   "Longitude": 77.429627
 },
 {
   "State": "Karnataka",
   "BranchName": "Sahabad",
   "Latitude": 17.12482,
   "Longitude": 76.931434
 },
 {
   "State": "Karnataka",
   "BranchName": "Afzalpur",
   "Latitude": 17.205022,
   "Longitude": 76.362091
 },
 {
   "State": "Karnataka",
   "BranchName": "Jevargi",
   "Latitude": 17.009109,
   "Longitude": 76.755114
 },
 {
   "State": "Kerala",
   "BranchName": "Karunagappally",
   "Latitude": 9.071114,
   "Longitude": 76.535448
 },
 {
   "State": "Kerala",
   "BranchName": "Kottiyam",
   "Latitude": 8.857694,
   "Longitude": 76.634931
 },
 {
   "State": "Kerala",
   "BranchName": "Chavara",
   "Latitude": 8.990087,
   "Longitude": 76.553085
 },
 {
   "State": "Kerala",
   "BranchName": "Ochira",
   "Latitude": 9.128854,
   "Longitude": 76.508795
 },
 {
   "State": "Kerala",
   "BranchName": "Kollam-B",
   "Latitude": 8.876486,
   "Longitude": 76.60138
 },
 {
   "State": "Kerala",
   "BranchName": "Kavanad",
   "Latitude": 8.897163,
   "Longitude": 76.561647
 },
 {
   "State": "Kerala",
   "BranchName": "Mukhathala",
   "Latitude": 8.893718,
   "Longitude": 76.678028
 },
 {
   "State": "Kerala",
   "BranchName": "Eravipuram",
   "Latitude": 8.864146,
   "Longitude": 76.620234
 },
 {
   "State": "Kerala",
   "BranchName": "Pavumpa",
   "Latitude": 9.10804,
   "Longitude": 76.57698
 },
 {
   "State": "Kerala",
   "BranchName": "Thevalakkara",
   "Latitude": 8.99005,
   "Longitude": 76.553233
 },
 {
   "State": "Kerala",
   "BranchName": "Kottarakara",
   "Latitude": 9.010557,
   "Longitude": 76.817752
 },
 {
   "State": "Kerala",
   "BranchName": "Kundra",
   "Latitude": 8.939817,
   "Longitude": 76.681421
 },
 {
   "State": "Kerala",
   "BranchName": "Bharanikkavu",
   "Latitude": 9.047469,
   "Longitude": 76.648791
 },
 {
   "State": "Kerala",
   "BranchName": "Anjalamudu",
   "Latitude": 8.927278,
   "Longitude": 76.559438
 },
 {
   "State": "Kerala",
   "BranchName": "Ezhukone",
   "Latitude": 8.991427,
   "Longitude": 76.729563
 },
 {
   "State": "Kerala",
   "BranchName": "Puthoor",
   "Latitude": 9.041407,
   "Longitude": 76.720001
 },
 {
   "State": "Kerala",
   "BranchName": "Nedumankavu",
   "Latitude": 8.930513,
   "Longitude": 76.720845
 },
 {
   "State": "Kerala",
   "BranchName": "Odanavattom",
   "Latitude": 8.940063,
   "Longitude": 76.777552
 },
 {
   "State": "Kerala",
   "BranchName": "Chittumala",
   "Latitude": 8.998983,
   "Longitude": 76.673072
 },